{
  "DEU": [
    { "name": "Berlin", "lat": 52.52, "lon": 13.405, "population": 3645000, "isCapital": true },
    { "name": "Hamburg", "lat": 53.5511, "lon": 9.9937, "population": 1841000 },
    { "name": "München", "lat": 48.1351, "lon": 11.582, "population": 1472000 },
    { "name": "Köln", "lat": 50.9375, "lon": 6.9603, "population": 1086000 },
    { "name": "Frankfurt", "lat": 50.1109, "lon": 8.6821, "population": 753000 },
    { "name": "Stuttgart", "lat": 48.7758, "lon": 9.1829, "population": 635000 },
    { "name": "Düsseldorf", "lat": 51.2277, "lon": 6.7735, "population": 620000 },
    { "name": "Leipzig", "lat": 51.3397, "lon": 12.3731, "population": 593000 },
    { "name": "Dortmund", "lat": 51.5136, "lon": 7.4653, "population": 588000 },
    { "name": "Essen", "lat": 51.4556, "lon": 7.0116, "population": 583000 },
    { "name": "Bremen", "lat": 53.0793, "lon": 8.8017, "population": 567000 },
    { "name": "Dresden", "lat": 51.0504, "lon": 13.7373, "population": 556000 },
    { "name": "Hannover", "lat": 52.3759, "lon": 9.732, "population": 538000 },
    { "name": "Nürnberg", "lat": 49.4521, "lon": 11.0767, "population": 518000 },
    { "name": "Duisburg", "lat": 51.4344, "lon": 6.7623, "population": 498000 },
    { "name": "Bochum", "lat": 51.4818, "lon": 7.2162, "population": 365000 },
    { "name": "Wuppertal", "lat": 51.2562, "lon": 7.1508, "population": 355000 },
    { "name": "Bielefeld", "lat": 52.0302, "lon": 8.5325, "population": 334000 },
    { "name": "Bonn", "lat": 50.7374, "lon": 7.0982, "population": 330000 },
    { "name": "Münster", "lat": 51.9607, "lon": 7.6261, "population": 315000 },
    { "name": "Mannheim", "lat": 49.4875, "lon": 8.466, "population": 310000 },
    { "name": "Karlsruhe", "lat": 49.0069, "lon": 8.4037, "population": 308000 },
    { "name": "Augsburg", "lat": 48.3705, "lon": 10.8978, "population": 296000 },
    { "name": "Wiesbaden", "lat": 50.0782, "lon": 8.2398, "population": 278000 },
    { "name": "Mönchengladbach", "lat": 51.1805, "lon": 6.4428, "population": 261000 },
    { "name": "Gelsenkirchen", "lat": 51.5177, "lon": 7.0857, "population": 260000 },
    { "name": "Aachen", "lat": 50.7753, "lon": 6.0839, "population": 249000 },
    { "name": "Braunschweig", "lat": 52.2689, "lon": 10.5268, "population": 249000 },
    { "name": "Kiel", "lat": 54.3233, "lon": 10.1228, "population": 247000 },
    { "name": "Chemnitz", "lat": 50.8278, "lon": 12.9214, "population": 246000 },
    { "name": "Halle", "lat": 51.4969, "lon": 11.9688, "population": 239000 },
    { "name": "Magdeburg", "lat": 52.1205, "lon": 11.6276, "population": 237000 },
    { "name": "Freiburg", "lat": 47.999, "lon": 7.8421, "population": 231000 },
    { "name": "Krefeld", "lat": 51.3388, "lon": 6.5853, "population": 227000 },
    { "name": "Mainz", "lat": 49.9929, "lon": 8.2473, "population": 218000 },
    { "name": "Lübeck", "lat": 53.8655, "lon": 10.6866, "population": 217000 },
    { "name": "Erfurt", "lat": 50.9787, "lon": 11.0328, "population": 214000 },
    { "name": "Oberhausen", "lat": 51.4963, "lon": 6.8634, "population": 210000 },
    { "name": "Rostock", "lat": 54.0924, "lon": 12.0991, "population": 209000 },
    { "name": "Kassel", "lat": 51.3127, "lon": 9.4797, "population": 202000 },
    { "name": "Hagen", "lat": 51.3671, "lon": 7.4633, "population": 189000 },
    { "name": "Potsdam", "lat": 52.3906, "lon": 13.0645, "population": 183000 },
    { "name": "Saarbrücken", "lat": 49.2402, "lon": 6.9969, "population": 180000 },
    { "name": "Heilbronn", "lat": 49.1427, "lon": 9.211, "population": 126000 }
  ],
  "USA": [
    { "name": "Washington D.C.", "lat": 38.9072, "lon": -77.0369, "population": 705000, "isCapital": true },
    { "name": "New York", "lat": 40.7128, "lon": -74.006, "population": 8336000 },
    { "name": "Los Angeles", "lat": 34.0522, "lon": -118.2437, "population": 3979000 },
    { "name": "Chicago", "lat": 41.8781, "lon": -87.6298, "population": 2693000 },
    { "name": "Houston", "lat": 29.7604, "lon": -95.3698, "population": 2320000 },
    { "name": "Phoenix", "lat": 33.4484, "lon": -112.074, "population": 1681000 },
    { "name": "Philadelphia", "lat": 39.9526, "lon": -75.1652, "population": 1584000 },
    { "name": "San Antonio", "lat": 29.4241, "lon": -98.4936, "population": 1547000 },
    { "name": "San Diego", "lat": 32.7157, "lon": -117.1611, "population": 1423000 },
    { "name": "Dallas", "lat": 32.7767, "lon": -96.797, "population": 1343000 },
    { "name": "San Jose", "lat": 37.3382, "lon": -121.8863, "population": 1021000 },
    { "name": "Austin", "lat": 30.2672, "lon": -97.7431, "population": 978000 },
    { "name": "Jacksonville", "lat": 30.3322, "lon": -81.6557, "population": 911000 },
    { "name": "Fort Worth", "lat": 32.7555, "lon": -97.3308, "population": 909000 },
    { "name": "Columbus", "lat": 39.9612, "lon": -82.9988, "population": 898000 },
    { "name": "San Francisco", "lat": 37.7749, "lon": -122.4194, "population": 874000 },
    { "name": "Charlotte", "lat": 35.2271, "lon": -80.8431, "population": 874000 },
    { "name": "Indianapolis", "lat": 39.7684, "lon": -86.1581, "population": 867000 },
    { "name": "Seattle", "lat": 47.6062, "lon": -122.3321, "population": 753000 },
    { "name": "Denver", "lat": 39.7392, "lon": -104.9903, "population": 727000 },
    { "name": "Boston", "lat": 42.3601, "lon": -71.0589, "population": 692000 },
    { "name": "Nashville", "lat": 36.1627, "lon": -86.7816, "population": 689000 },
    { "name": "El Paso", "lat": 31.7619, "lon": -106.485, "population": 681000 },
    { "name": "Detroit", "lat": 42.3314, "lon": -83.0458, "population": 639000 },
    { "name": "Portland", "lat": 45.5051, "lon": -122.675, "population": 653000 },
    { "name": "Memphis", "lat": 35.1495, "lon": -90.049, "population": 651000 },
    { "name": "Oklahoma City", "lat": 35.4676, "lon": -97.5164, "population": 649000 },
    { "name": "Las Vegas", "lat": 36.1699, "lon": -115.1398, "population": 641000 },
    { "name": "Louisville", "lat": 38.2527, "lon": -85.7585, "population": 617000 },
    { "name": "Baltimore", "lat": 39.2904, "lon": -76.6122, "population": 593000 },
    { "name": "Milwaukee", "lat": 43.0389, "lon": -87.9065, "population": 577000 },
    { "name": "Albuquerque", "lat": 35.0844, "lon": -106.6504, "population": 564000 },
    { "name": "Tucson", "lat": 32.2226, "lon": -110.9747, "population": 542000 },
    { "name": "Fresno", "lat": 36.7378, "lon": -119.7871, "population": 531000 },
    { "name": "Sacramento", "lat": 38.5816, "lon": -121.4944, "population": 513000 },
    { "name": "Atlanta", "lat": 33.749, "lon": -84.388, "population": 499000 },
    { "name": "Miami", "lat": 25.7617, "lon": -80.1918, "population": 467000 },
    { "name": "New Orleans", "lat": 29.9511, "lon": -90.0715, "population": 391000 },
    { "name": "Cleveland", "lat": 41.4993, "lon": -81.6944, "population": 373000 },
    { "name": "Minneapolis", "lat": 44.9778, "lon": -93.265, "population": 429000 },
    { "name": "Honolulu", "lat": 21.3069, "lon": -157.8583, "population": 350000 },
    { "name": "Pittsburgh", "lat": 40.4406, "lon": -79.9959, "population": 302000 },
    { "name": "St. Louis", "lat": 38.627, "lon": -90.1994, "population": 301000 },
    { "name": "Anchorage", "lat": 61.2181, "lon": -149.9003, "population": 291000 }
  ],
  "RUS": [
    { "name": "Moskau", "lat": 55.7558, "lon": 37.6173, "population": 12506000, "isCapital": true },
    { "name": "Sankt Petersburg", "lat": 59.9311, "lon": 30.3609, "population": 5384000 },
    { "name": "Nowosibirsk", "lat": 55.0084, "lon": 82.9357, "population": 1625000 },
    { "name": "Jekaterinburg", "lat": 56.8389, "lon": 60.6057, "population": 1493000 },
    { "name": "Kasan", "lat": 55.7887, "lon": 49.1221, "population": 1257000 },
    { "name": "Nischni Nowgorod", "lat": 56.2965, "lon": 43.9361, "population": 1252000 },
    { "name": "Tscheljabinsk", "lat": 55.1644, "lon": 61.4368, "population": 1196000 },
    { "name": "Samara", "lat": 53.1959, "lon": 50.1002, "population": 1156000 },
    { "name": "Omsk", "lat": 54.9885, "lon": 73.3242, "population": 1154000 },
    { "name": "Rostow am Don", "lat": 47.2357, "lon": 39.7015, "population": 1137000 },
    { "name": "Ufa", "lat": 54.7388, "lon": 55.9721, "population": 1120000 },
    { "name": "Krasnojarsk", "lat": 56.0153, "lon": 92.8932, "population": 1093000 },
    { "name": "Woronesch", "lat": 51.672, "lon": 39.1843, "population": 1058000 },
    { "name": "Perm", "lat": 58.0105, "lon": 56.2502, "population": 1055000 },
    { "name": "Wolgograd", "lat": 48.708, "lon": 44.5133, "population": 1013000 },
    { "name": "Krasnodar", "lat": 45.0448, "lon": 38.976, "population": 932000 },
    { "name": "Saratow", "lat": 51.5462, "lon": 46.0154, "population": 838000 },
    { "name": "Tjumen", "lat": 57.1522, "lon": 65.5272, "population": 816000 },
    { "name": "Tolyatti", "lat": 53.5075, "lon": 49.4205, "population": 699000 },
    { "name": "Ischewsk", "lat": 56.8519, "lon": 53.2114, "population": 648000 },
    { "name": "Barnaul", "lat": 53.3548, "lon": 83.7698, "population": 632000 },
    { "name": "Uljanowsk", "lat": 54.3142, "lon": 48.4031, "population": 627000 },
    { "name": "Irkutsk", "lat": 52.287, "lon": 104.305, "population": 623000 },
    { "name": "Chabarowsk", "lat": 48.4802, "lon": 135.0719, "population": 617000 },
    { "name": "Jaroslawl", "lat": 57.6299, "lon": 39.8737, "population": 601000 },
    { "name": "Wladiwostok", "lat": 43.1155, "lon": 131.8855, "population": 600000 },
    { "name": "Machatschkala", "lat": 42.9849, "lon": 47.5047, "population": 596000 },
    { "name": "Tomsk", "lat": 56.4977, "lon": 84.9744, "population": 576000 },
    { "name": "Orenburg", "lat": 51.7681, "lon": 55.0968, "population": 564000 },
    { "name": "Kemerowo", "lat": 55.3333, "lon": 86.0833, "population": 556000 },
    { "name": "Nowokusnezk", "lat": 53.7596, "lon": 87.1216, "population": 549000 },
    { "name": "Rjasan", "lat": 54.6296, "lon": 39.7368, "population": 539000 },
    { "name": "Astrachan", "lat": 46.3587, "lon": 48.0578, "population": 534000 },
    { "name": "Nabereschnyje Tschelny", "lat": 55.7431, "lon": 52.4156, "population": 533000 },
    { "name": "Pensa", "lat": 53.1959, "lon": 45.0183, "population": 520000 },
    { "name": "Lipezk", "lat": 52.6032, "lon": 39.5987, "population": 508000 },
    { "name": "Kirow", "lat": 58.5966, "lon": 49.6601, "population": 507000 },
    { "name": "Tscheboksary", "lat": 56.1439, "lon": 47.2489, "population": 492000 },
    { "name": "Tula", "lat": 54.1961, "lon": 37.6182, "population": 479000 },
    { "name": "Kaliningrad", "lat": 54.7104, "lon": 20.4522, "population": 475000 },
    { "name": "Kursk", "lat": 51.7373, "lon": 36.1874, "population": 452000 },
    { "name": "Stawropol", "lat": 45.0428, "lon": 41.9734, "population": 437000 },
    { "name": "Twer", "lat": 56.8587, "lon": 35.9176, "population": 425000 },
    { "name": "Murmansk", "lat": 68.9585, "lon": 33.0827, "population": 292000 }
  ],
  "FRA": [
    { "name": "Paris", "lat": 48.8566, "lon": 2.3522, "population": 2161000, "isCapital": true },
    { "name": "Marseille", "lat": 43.2965, "lon": 5.3698, "population": 870000 },
    { "name": "Lyon", "lat": 45.764, "lon": 4.8357, "population": 522000 },
    { "name": "Toulouse", "lat": 43.6047, "lon": 1.4442, "population": 493000 },
    { "name": "Nice", "lat": 43.7102, "lon": 7.262, "population": 342000 },
    { "name": "Nantes", "lat": 47.2184, "lon": -1.5536, "population": 314000 },
    { "name": "Montpellier", "lat": 43.6108, "lon": 3.8767, "population": 290000 },
    { "name": "Strasbourg", "lat": 48.5734, "lon": 7.7521, "population": 284000 },
    { "name": "Bordeaux", "lat": 44.8378, "lon": -0.5792, "population": 257000 },
    { "name": "Lille", "lat": 50.6292, "lon": 3.0573, "population": 234000 },
    { "name": "Rennes", "lat": 48.1173, "lon": -1.6778, "population": 222000 },
    { "name": "Reims", "lat": 49.2583, "lon": 4.0317, "population": 182000 },
    { "name": "Le Havre", "lat": 49.4944, "lon": 0.1079, "population": 172000 },
    { "name": "Saint-Étienne", "lat": 45.4397, "lon": 4.3872, "population": 172000 },
    { "name": "Toulon", "lat": 43.1242, "lon": 5.928, "population": 171000 },
    { "name": "Grenoble", "lat": 45.1885, "lon": 5.7245, "population": 160000 },
    { "name": "Dijon", "lat": 47.322, "lon": 5.0415, "population": 158000 },
    { "name": "Angers", "lat": 47.4784, "lon": -0.5632, "population": 155000 },
    { "name": "Nîmes", "lat": 43.8367, "lon": 4.3601, "population": 151000 },
    { "name": "Villeurbanne", "lat": 45.7676, "lon": 4.881, "population": 150000 },
    { "name": "Clermont-Ferrand", "lat": 45.7772, "lon": 3.087, "population": 146000 },
    { "name": "Le Mans", "lat": 48.0061, "lon": 0.1996, "population": 145000 },
    { "name": "Aix-en-Provence", "lat": 43.5297, "lon": 5.4474, "population": 145000 },
    { "name": "Brest", "lat": 48.3904, "lon": -4.4861, "population": 140000 },
    { "name": "Tours", "lat": 47.3941, "lon": 0.6848, "population": 136000 },
    { "name": "Amiens", "lat": 49.8941, "lon": 2.2958, "population": 134000 },
    { "name": "Limoges", "lat": 45.8336, "lon": 1.2611, "population": 132000 },
    { "name": "Metz", "lat": 49.1193, "lon": 6.1757, "population": 120000 },
    { "name": "Perpignan", "lat": 42.6887, "lon": 2.8948, "population": 120000 },
    { "name": "Besançon", "lat": 47.2378, "lon": 6.0241, "population": 117000 },
    { "name": "Orléans", "lat": 47.9029, "lon": 1.9039, "population": 116000 },
    { "name": "Rouen", "lat": 49.4432, "lon": 1.0999, "population": 112000 },
    { "name": "Mulhouse", "lat": 47.7508, "lon": 7.3359, "population": 110000 },
    { "name": "Caen", "lat": 49.1829, "lon": -0.3707, "population": 107000 },
    { "name": "Nancy", "lat": 48.6921, "lon": 6.1844, "population": 105000 }
  ],
  "JPN": [
    { "name": "Tokio", "lat": 35.6762, "lon": 139.6503, "population": 13960000, "isCapital": true },
    { "name": "Yokohama", "lat": 35.4437, "lon": 139.638, "population": 3749000 },
    { "name": "Osaka", "lat": 34.6937, "lon": 135.5023, "population": 2752000 },
    { "name": "Nagoya", "lat": 35.1815, "lon": 136.9066, "population": 2320000 },
    { "name": "Sapporo", "lat": 43.0618, "lon": 141.3545, "population": 1973000 },
    { "name": "Fukuoka", "lat": 33.5904, "lon": 130.4017, "population": 1603000 },
    { "name": "Kobe", "lat": 34.6901, "lon": 135.1956, "population": 1522000 },
    { "name": "Kyoto", "lat": 35.0116, "lon": 135.7681, "population": 1464000 },
    { "name": "Kawasaki", "lat": 35.5309, "lon": 139.7029, "population": 1538000 },
    { "name": "Saitama", "lat": 35.8617, "lon": 139.6455, "population": 1324000 },
    { "name": "Hiroshima", "lat": 34.3853, "lon": 132.4553, "population": 1199000 },
    { "name": "Sendai", "lat": 38.2682, "lon": 140.8694, "population": 1096000 },
    { "name": "Chiba", "lat": 35.6073, "lon": 140.1063, "population": 974000 },
    { "name": "Kitakyushu", "lat": 33.8835, "lon": 130.8752, "population": 939000 },
    { "name": "Sakai", "lat": 34.5733, "lon": 135.4831, "population": 826000 },
    { "name": "Niigata", "lat": 37.9026, "lon": 139.0236, "population": 789000 },
    { "name": "Hamamatsu", "lat": 34.7108, "lon": 137.7262, "population": 791000 },
    { "name": "Shizuoka", "lat": 34.9756, "lon": 138.3828, "population": 693000 },
    { "name": "Okayama", "lat": 34.6551, "lon": 133.9195, "population": 724000 },
    { "name": "Kumamoto", "lat": 32.8032, "lon": 130.7079, "population": 738000 },
    { "name": "Sagamihara", "lat": 35.5714, "lon": 139.3736, "population": 725000 },
    { "name": "Kagoshima", "lat": 31.5966, "lon": 130.5571, "population": 599000 },
    { "name": "Funabashi", "lat": 35.6947, "lon": 139.9828, "population": 642000 },
    { "name": "Hachioji", "lat": 35.6664, "lon": 139.316, "population": 579000 },
    { "name": "Matsuyama", "lat": 33.8392, "lon": 132.7658, "population": 509000 },
    { "name": "Kanazawa", "lat": 36.5944, "lon": 136.6256, "population": 465000 },
    { "name": "Nagasaki", "lat": 32.7503, "lon": 129.8779, "population": 410000 },
    { "name": "Naha", "lat": 26.2124, "lon": 127.6809, "population": 318000 }
  ],
  "GBR": [
    { "name": "London", "lat": 51.5074, "lon": -0.1278, "population": 8982000, "isCapital": true },
    { "name": "Birmingham", "lat": 52.4862, "lon": -1.8904, "population": 1141000 },
    { "name": "Leeds", "lat": 53.8008, "lon": -1.5491, "population": 793000 },
    { "name": "Glasgow", "lat": 55.8642, "lon": -4.2518, "population": 633000 },
    { "name": "Sheffield", "lat": 53.3811, "lon": -1.4701, "population": 584000 },
    { "name": "Manchester", "lat": 53.4808, "lon": -2.2426, "population": 553000 },
    { "name": "Edinburgh", "lat": 55.9533, "lon": -3.1883, "population": 527000 },
    { "name": "Liverpool", "lat": 53.4084, "lon": -2.9916, "population": 498000 },
    { "name": "Bristol", "lat": 51.4545, "lon": -2.5879, "population": 467000 },
    { "name": "Cardiff", "lat": 51.4816, "lon": -3.1791, "population": 362000 },
    { "name": "Leicester", "lat": 52.6369, "lon": -1.1398, "population": 355000 },
    { "name": "Coventry", "lat": 52.4068, "lon": -1.5197, "population": 371000 },
    { "name": "Belfast", "lat": 54.5973, "lon": -5.9301, "population": 343000 },
    { "name": "Nottingham", "lat": 52.9548, "lon": -1.1581, "population": 332000 },
    { "name": "Newcastle", "lat": 54.9783, "lon": -1.6178, "population": 302000 },
    { "name": "Southampton", "lat": 50.9097, "lon": -1.4044, "population": 269000 },
    { "name": "Portsmouth", "lat": 50.8198, "lon": -1.0879, "population": 238000 },
    { "name": "Brighton", "lat": 50.8225, "lon": -0.1372, "population": 229000 },
    { "name": "Plymouth", "lat": 50.3755, "lon": -4.1427, "population": 264000 },
    { "name": "Reading", "lat": 51.4543, "lon": -0.9781, "population": 232000 },
    { "name": "Aberdeen", "lat": 57.1497, "lon": -2.0943, "population": 229000 },
    { "name": "Derby", "lat": 52.9225, "lon": -1.4746, "population": 257000 },
    { "name": "Stoke-on-Trent", "lat": 53.0027, "lon": -2.1794, "population": 256000 },
    { "name": "Wolverhampton", "lat": 52.5869, "lon": -2.1257, "population": 254000 },
    { "name": "Swansea", "lat": 51.6214, "lon": -3.9436, "population": 246000 },
    { "name": "Milton Keynes", "lat": 52.0406, "lon": -0.7594, "population": 229000 },
    { "name": "Cambridge", "lat": 52.2053, "lon": 0.1218, "population": 145000 },
    { "name": "Oxford", "lat": 51.752, "lon": -1.2577, "population": 152000 }
  ],
  "IND": [
    { "name": "Neu-Delhi", "lat": 28.6139, "lon": 77.209, "population": 16787000, "isCapital": true },
    { "name": "Mumbai", "lat": 19.076, "lon": 72.8777, "population": 12478000 },
    { "name": "Kolkata", "lat": 22.5726, "lon": 88.3639, "population": 4496000 },
    { "name": "Bangalore", "lat": 12.9716, "lon": 77.5946, "population": 8443000 },
    { "name": "Chennai", "lat": 13.0827, "lon": 80.2707, "population": 4646000 },
    { "name": "Hyderabad", "lat": 17.385, "lon": 78.4867, "population": 6809000 },
    { "name": "Ahmedabad", "lat": 23.0225, "lon": 72.5714, "population": 5570000 },
    { "name": "Pune", "lat": 18.5204, "lon": 73.8567, "population": 3124000 },
    { "name": "Surat", "lat": 21.1702, "lon": 72.8311, "population": 4467000 },
    { "name": "Jaipur", "lat": 26.9124, "lon": 75.7873, "population": 3046000 },
    { "name": "Lucknow", "lat": 26.8467, "lon": 80.9462, "population": 2815000 },
    { "name": "Kanpur", "lat": 26.4499, "lon": 80.3319, "population": 2765000 },
    { "name": "Nagpur", "lat": 21.1458, "lon": 79.0882, "population": 2405000 },
    { "name": "Indore", "lat": 22.7196, "lon": 75.8577, "population": 1960000 },
    { "name": "Thane", "lat": 19.2183, "lon": 72.9781, "population": 1841000 },
    { "name": "Bhopal", "lat": 23.2599, "lon": 77.4126, "population": 1798000 },
    { "name": "Visakhapatnam", "lat": 17.6868, "lon": 83.2185, "population": 1728000 },
    { "name": "Patna", "lat": 25.5941, "lon": 85.1376, "population": 1684000 },
    { "name": "Vadodara", "lat": 22.3072, "lon": 73.1812, "population": 1666000 },
    { "name": "Ghaziabad", "lat": 28.6692, "lon": 77.4538, "population": 1648000 },
    { "name": "Ludhiana", "lat": 30.901, "lon": 75.8573, "population": 1613000 },
    { "name": "Agra", "lat": 27.1767, "lon": 78.0081, "population": 1585000 },
    { "name": "Nashik", "lat": 19.9975, "lon": 73.7898, "population": 1486000 },
    { "name": "Faridabad", "lat": 28.4089, "lon": 77.3178, "population": 1404000 },
    { "name": "Meerut", "lat": 28.9845, "lon": 77.7064, "population": 1305000 },
    { "name": "Rajkot", "lat": 22.3039, "lon": 70.8022, "population": 1286000 },
    { "name": "Varanasi", "lat": 25.3176, "lon": 82.9739, "population": 1198000 },
    { "name": "Srinagar", "lat": 34.0837, "lon": 74.7973, "population": 1180000 },
    { "name": "Aurangabad", "lat": 19.8762, "lon": 75.3433, "population": 1175000 },
    { "name": "Amritsar", "lat": 31.634, "lon": 74.8723, "population": 1132000 },
    { "name": "Allahabad", "lat": 25.4358, "lon": 81.8463, "population": 1112000 },
    { "name": "Ranchi", "lat": 23.3441, "lon": 85.3096, "population": 1073000 },
    { "name": "Coimbatore", "lat": 11.0168, "lon": 76.9558, "population": 1061000 },
    { "name": "Jabalpur", "lat": 23.1815, "lon": 79.9864, "population": 1055000 },
    { "name": "Gwalior", "lat": 26.2183, "lon": 78.1828, "population": 1054000 }
  ],
  "CHN": [
    { "name": "Peking", "lat": 39.9042, "lon": 116.4074, "population": 21540000, "isCapital": true },
    { "name": "Shanghai", "lat": 31.2304, "lon": 121.4737, "population": 24870000 },
    { "name": "Chongqing", "lat": 29.4316, "lon": 106.9123, "population": 15872000 },
    { "name": "Tianjin", "lat": 39.3434, "lon": 117.3616, "population": 13866000 },
    { "name": "Guangzhou", "lat": 23.1291, "lon": 113.2644, "population": 14904000 },
    { "name": "Shenzhen", "lat": 22.5431, "lon": 114.0579, "population": 12528000 },
    { "name": "Wuhan", "lat": 30.5928, "lon": 114.3055, "population": 11081000 },
    { "name": "Dongguan", "lat": 23.0207, "lon": 113.7518, "population": 10466000 },
    { "name": "Chengdu", "lat": 30.5728, "lon": 104.0668, "population": 10152000 },
    { "name": "Nanjing", "lat": 32.0603, "lon": 118.7969, "population": 8505000 },
    { "name": "Hangzhou", "lat": 30.2741, "lon": 120.1551, "population": 8241000 },
    { "name": "Xian", "lat": 34.3416, "lon": 108.9398, "population": 8467000 },
    { "name": "Shenyang", "lat": 41.8057, "lon": 123.4315, "population": 8106000 },
    { "name": "Suzhou", "lat": 31.2989, "lon": 120.5853, "population": 7072000 },
    { "name": "Harbin", "lat": 45.8038, "lon": 126.535, "population": 6355000 },
    { "name": "Qingdao", "lat": 36.0671, "lon": 120.3826, "population": 6188000 },
    { "name": "Dalian", "lat": 38.914, "lon": 121.6147, "population": 5942000 },
    { "name": "Zhengzhou", "lat": 34.7472, "lon": 113.6249, "population": 5700000 },
    { "name": "Jinan", "lat": 36.6512, "lon": 117.1201, "population": 5314000 },
    { "name": "Changchun", "lat": 43.8171, "lon": 125.3235, "population": 5168000 },
    { "name": "Kunming", "lat": 25.0389, "lon": 102.7183, "population": 4893000 },
    { "name": "Changsha", "lat": 28.2282, "lon": 112.9388, "population": 4748000 },
    { "name": "Taiyuan", "lat": 37.8706, "lon": 112.5489, "population": 4529000 },
    { "name": "Xiamen", "lat": 24.4798, "lon": 118.0894, "population": 4290000 },
    { "name": "Hefei", "lat": 31.8206, "lon": 117.2272, "population": 4246000 },
    { "name": "Shijiazhuang", "lat": 38.0428, "lon": 114.5149, "population": 4236000 },
    { "name": "Ürümqi", "lat": 43.8256, "lon": 87.6168, "population": 4054000 },
    { "name": "Fuzhou", "lat": 26.0745, "lon": 119.2965, "population": 3940000 },
    { "name": "Wuxi", "lat": 31.4912, "lon": 120.3119, "population": 3812000 },
    { "name": "Nanchang", "lat": 28.6829, "lon": 115.8579, "population": 3790000 },
    { "name": "Ningbo", "lat": 29.8683, "lon": 121.544, "population": 3780000 },
    { "name": "Nanning", "lat": 22.817, "lon": 108.3665, "population": 3705000 },
    { "name": "Lanzhou", "lat": 36.0611, "lon": 103.8343, "population": 3616000 },
    { "name": "Guiyang", "lat": 26.6477, "lon": 106.6302, "population": 3547000 },
    { "name": "Tangshan", "lat": 39.6292, "lon": 118.1742, "population": 3372000 },
    { "name": "Wenzhou", "lat": 27.9939, "lon": 120.6994, "population": 3039000 },
    { "name": "Zibo", "lat": 36.8131, "lon": 118.0548, "population": 2872000 },
    { "name": "Haikou", "lat": 20.044, "lon": 110.1999, "population": 2873000 },
    { "name": "Lhasa", "lat": 29.65, "lon": 91.1, "population": 560000 }
  ],
  "CAN": [
    { "name": "Ottawa", "lat": 45.4215, "lon": -75.6972, "population": 1017000, "isCapital": true },
    { "name": "Toronto", "lat": 43.6532, "lon": -79.3832, "population": 2731000 },
    { "name": "Montreal", "lat": 45.5017, "lon": -73.5673, "population": 1762000 },
    { "name": "Calgary", "lat": 51.0447, "lon": -114.0719, "population": 1306000 },
    { "name": "Edmonton", "lat": 53.5461, "lon": -113.4938, "population": 1010000 },
    { "name": "Vancouver", "lat": 49.2827, "lon": -123.1207, "population": 675000 },
    { "name": "Winnipeg", "lat": 49.8951, "lon": -97.1384, "population": 749000 },
    { "name": "Mississauga", "lat": 43.589, "lon": -79.6441, "population": 721000 },
    { "name": "Brampton", "lat": 43.7315, "lon": -79.7624, "population": 656000 },
    { "name": "Hamilton", "lat": 43.2557, "lon": -79.8711, "population": 569000 },
    { "name": "Quebec City", "lat": 46.8139, "lon": -71.208, "population": 549000 },
    { "name": "Surrey", "lat": 49.1913, "lon": -122.8491, "population": 568000 },
    { "name": "Laval", "lat": 45.5617, "lon": -73.7124, "population": 438000 },
    { "name": "Halifax", "lat": 44.6488, "lon": -63.5752, "population": 439000 },
    { "name": "London", "lat": 42.9849, "lon": -81.2453, "population": 404000 },
    { "name": "Markham", "lat": 43.8561, "lon": -79.337, "population": 338000 },
    { "name": "Vaughan", "lat": 43.8361, "lon": -79.4983, "population": 323000 },
    { "name": "Gatineau", "lat": 45.4765, "lon": -75.7013, "population": 291000 },
    { "name": "Saskatoon", "lat": 52.1332, "lon": -106.67, "population": 273000 },
    { "name": "Kitchener", "lat": 43.4516, "lon": -80.4925, "population": 256000 },
    { "name": "Windsor", "lat": 42.3149, "lon": -83.0364, "population": 229000 },
    { "name": "Regina", "lat": 50.4452, "lon": -104.6189, "population": 226000 },
    { "name": "Richmond", "lat": 49.1666, "lon": -123.1336, "population": 209000 },
    { "name": "Victoria", "lat": 48.4284, "lon": -123.3656, "population": 92000 },
    { "name": "St. John's", "lat": 47.5615, "lon": -52.7126, "population": 110000 },
    { "name": "Whitehorse", "lat": 60.7212, "lon": -135.0568, "population": 25000 },
    { "name": "Yellowknife", "lat": 62.454, "lon": -114.3718, "population": 21000 }
  ],
  "POL": [
    { "name": "Warschau", "lat": 52.2297, "lon": 21.0122, "population": 1790000, "isCapital": true },
    { "name": "Krakau", "lat": 50.0647, "lon": 19.945, "population": 779000 },
    { "name": "Lodz", "lat": 51.7592, "lon": 19.456, "population": 680000 },
    { "name": "Breslau", "lat": 51.1079, "lon": 17.0385, "population": 643000 },
    { "name": "Posen", "lat": 52.4064, "lon": 16.9252, "population": 534000 },
    { "name": "Danzig", "lat": 54.352, "lon": 18.6466, "population": 471000 },
    { "name": "Stettin", "lat": 53.4285, "lon": 14.5528, "population": 402000 },
    { "name": "Bydgoszcz", "lat": 53.1235, "lon": 18.0084, "population": 348000 },
    { "name": "Lublin", "lat": 51.2465, "lon": 22.5684, "population": 339000 },
    { "name": "Białystok", "lat": 53.1325, "lon": 23.1688, "population": 297000 },
    { "name": "Kattowitz", "lat": 50.2649, "lon": 19.0238, "population": 292000 },
    { "name": "Gdingen", "lat": 54.5189, "lon": 18.5305, "population": 246000 },
    { "name": "Tschenstochau", "lat": 50.8118, "lon": 19.1203, "population": 224000 },
    { "name": "Radom", "lat": 51.4027, "lon": 21.1471, "population": 213000 },
    { "name": "Sosnowiec", "lat": 50.2863, "lon": 19.1041, "population": 199000 },
    { "name": "Thorn", "lat": 53.0138, "lon": 18.5984, "population": 201000 },
    { "name": "Kielce", "lat": 50.8661, "lon": 20.6286, "population": 195000 },
    { "name": "Rzeszów", "lat": 50.0412, "lon": 21.999, "population": 196000 },
    { "name": "Gleiwitz", "lat": 50.2945, "lon": 18.6714, "population": 178000 },
    { "name": "Zabrze", "lat": 50.3249, "lon": 18.7857, "population": 173000 },
    { "name": "Olsztyn", "lat": 53.778, "lon": 20.4942, "population": 171000 },
    { "name": "Bielsko-Biała", "lat": 49.8224, "lon": 19.0444, "population": 170000 },
    { "name": "Bytom", "lat": 50.3484, "lon": 18.9156, "population": 166000 },
    { "name": "Zielona Góra", "lat": 51.9356, "lon": 15.5062, "population": 141000 },
    { "name": "Rybnik", "lat": 50.1022, "lon": 18.5463, "population": 139000 },
    { "name": "Oppeln", "lat": 50.6751, "lon": 17.9213, "population": 128000 },
    { "name": "Tychy", "lat": 50.1217, "lon": 18.9996, "population": 127000 },
    { "name": "Bromberg", "lat": 53.1235, "lon": 18.0084, "population": 125000 }
  ],
  "ITA": [
    { "name": "Rom", "lat": 41.9028, "lon": 12.4964, "population": 2873000, "isCapital": true },
    { "name": "Mailand", "lat": 45.4642, "lon": 9.19, "population": 1378000 },
    { "name": "Neapel", "lat": 40.8518, "lon": 14.2681, "population": 967000 },
    { "name": "Turin", "lat": 45.0703, "lon": 7.6869, "population": 870000 },
    { "name": "Palermo", "lat": 38.1157, "lon": 13.3615, "population": 657000 },
    { "name": "Genua", "lat": 44.4056, "lon": 8.9463, "population": 574000 },
    { "name": "Bologna", "lat": 44.4949, "lon": 11.3426, "population": 392000 },
    { "name": "Florenz", "lat": 43.7696, "lon": 11.2558, "population": 382000 },
    { "name": "Bari", "lat": 41.1171, "lon": 16.8719, "population": 326000 },
    { "name": "Catania", "lat": 37.5079, "lon": 15.083, "population": 311000 },
    { "name": "Venedig", "lat": 45.4408, "lon": 12.3155, "population": 261000 },
    { "name": "Verona", "lat": 45.4384, "lon": 10.9916, "population": 257000 },
    { "name": "Messina", "lat": 38.1938, "lon": 15.5542, "population": 232000 },
    { "name": "Padua", "lat": 45.4064, "lon": 11.8768, "population": 214000 },
    { "name": "Triest", "lat": 45.6495, "lon": 13.7768, "population": 204000 },
    { "name": "Taranto", "lat": 40.4644, "lon": 17.247, "population": 198000 },
    { "name": "Brescia", "lat": 45.5416, "lon": 10.2118, "population": 197000 },
    { "name": "Prato", "lat": 43.8777, "lon": 11.1023, "population": 194000 },
    { "name": "Parma", "lat": 44.8015, "lon": 10.328, "population": 196000 },
    { "name": "Modena", "lat": 44.6471, "lon": 10.9252, "population": 186000 },
    { "name": "Reggio Calabria", "lat": 38.111, "lon": 15.6472, "population": 181000 },
    { "name": "Reggio Emilia", "lat": 44.6989, "lon": 10.6297, "population": 172000 },
    { "name": "Perugia", "lat": 43.1107, "lon": 12.3908, "population": 166000 },
    { "name": "Livorno", "lat": 43.5485, "lon": 10.3106, "population": 158000 },
    { "name": "Ravenna", "lat": 44.4184, "lon": 12.2035, "population": 159000 },
    { "name": "Cagliari", "lat": 39.2238, "lon": 9.1217, "population": 154000 },
    { "name": "Foggia", "lat": 41.4622, "lon": 15.5446, "population": 151000 },
    { "name": "Rimini", "lat": 44.0678, "lon": 12.5695, "population": 150000 },
    { "name": "Salerno", "lat": 40.6824, "lon": 14.7681, "population": 134000 },
    { "name": "Ferrara", "lat": 44.8381, "lon": 11.6198, "population": 132000 },
    { "name": "Sassari", "lat": 40.7259, "lon": 8.5555, "population": 127000 },
    { "name": "Latina", "lat": 41.4675, "lon": 12.9037, "population": 126000 },
    { "name": "Monza", "lat": 45.5845, "lon": 9.2744, "population": 124000 },
    { "name": "Siracusa", "lat": 37.0755, "lon": 15.2866, "population": 121000 },
    { "name": "Bergamo", "lat": 45.6983, "lon": 9.6773, "population": 121000 },
    { "name": "Pescara", "lat": 42.4618, "lon": 14.2161, "population": 119000 },
    { "name": "Ancona", "lat": 43.6158, "lon": 13.5189, "population": 101000 },
    { "name": "Vicenza", "lat": 45.5455, "lon": 11.5354, "population": 112000 },
    { "name": "Bolzano", "lat": 46.4983, "lon": 11.3548, "population": 108000 },
    { "name": "Udine", "lat": 46.0711, "lon": 13.2346, "population": 99000 }
  ],
  "GBR": [
    { "name": "London", "lat": 51.5099, "lon": -0.1181, "population": 8982000, "isCapital": true },
    { "name": "Birmingham", "lat": 52.4894, "lon": -1.8986, "population": 1149000 },
    { "name": "Manchester", "lat": 53.4840, "lon": -2.2446, "population": 553000 },
    { "name": "Glasgow", "lat": 55.8609, "lon": -4.2514, "population": 635000 },
    { "name": "Liverpool", "lat": 53.4106, "lon": -2.9779, "population": 498000 },
    { "name": "Bristol", "lat": 51.4545, "lon": -2.5879, "population": 467000 },
    { "name": "Sheffield", "lat": 53.3833, "lon": -1.4667, "population": 584000 },
    { "name": "Leeds", "lat": 53.8013, "lon": -1.5486, "population": 793000 },
    { "name": "Edinburgh", "lat": 55.9533, "lon": -3.1883, "population": 527000 },
    { "name": "Leicester", "lat": 52.6369, "lon": -1.1398, "population": 355000 },
    { "name": "Newcastle", "lat": 54.9667, "lon": -1.6000, "population": 302000 },
    { "name": "Nottingham", "lat": 52.9548, "lon": -1.1581, "population": 332000 },
    { "name": "Cardiff", "lat": 51.4816, "lon": -3.1791, "population": 366000 },
    { "name": "Belfast", "lat": 54.6079, "lon": -5.9264, "population": 343000 },
    { "name": "Coventry", "lat": 52.4068, "lon": -1.5197, "population": 371000 },
    { "name": "Bradford", "lat": 53.7960, "lon": -1.7594, "population": 537000 },
    { "name": "Stoke-on-Trent", "lat": 53.0027, "lon": -2.1794, "population": 256000 },
    { "name": "Wolverhampton", "lat": 52.5870, "lon": -2.1288, "population": 264000 },
    { "name": "Plymouth", "lat": 50.3715, "lon": -4.1430, "population": 263000 },
    { "name": "Southampton", "lat": 50.9097, "lon": -1.4044, "population": 254000 },
    { "name": "Reading", "lat": 51.4551, "lon": -0.9787, "population": 232000 },
    { "name": "Derby", "lat": 52.9225, "lon": -1.4746, "population": 257000 },
    { "name": "Swansea", "lat": 51.6214, "lon": -3.9436, "population": 246000 },
    { "name": "Aberdeen", "lat": 57.1497, "lon": -2.0943, "population": 228000 },
    { "name": "Cambridge", "lat": 52.2053, "lon": 0.1218, "population": 145000 },
    { "name": "Oxford", "lat": 51.7520, "lon": -1.2577, "population": 152000 },
    { "name": "York", "lat": 53.9583, "lon": -1.0803, "population": 210000 },
    { "name": "Exeter", "lat": 50.7256, "lon": -3.5269, "population": 130000 },
    { "name": "Norwich", "lat": 52.6309, "lon": 1.2974, "population": 144000 },
    { "name": "Sunderland", "lat": 54.9061, "lon": -1.3811, "population": 174000 },
    { "name": "Gloucester", "lat": 51.8642, "lon": -2.2382, "population": 129000 },
    { "name": "Carlisle", "lat": 54.8951, "lon": -2.9382, "population": 108000 },
    { "name": "Preston", "lat": 53.7632, "lon": -2.7031, "population": 143000 },
    { "name": "Wakefield", "lat": 53.6830, "lon": -1.4977, "population": 99000 },
    { "name": "Swindon", "lat": 51.5558, "lon": -1.7797, "population": 185000 },
    { "name": "Newport", "lat": 51.5882, "lon": -2.9977, "population": 155000 }
  ],
  "ESP": [
    { "name": "Madrid", "lat": 40.4168, "lon": -3.7038, "population": 3266000, "isCapital": true },
    { "name": "Barcelona", "lat": 41.3902, "lon": 2.1540, "population": 1621000 },
    { "name": "Valencia", "lat": 39.4699, "lon": -0.3763, "population": 792000 },
    { "name": "Sevilla", "lat": 37.3891, "lon": -5.9845, "population": 688000 },
    { "name": "Zaragoza", "lat": 41.6488, "lon": -0.8891, "population": 675000 },
    { "name": "Málaga", "lat": 36.7213, "lon": -4.4214, "population": 578000 },
    { "name": "Murcia", "lat": 37.9922, "lon": -1.1307, "population": 453000 },
    { "name": "Palma", "lat": 39.5696, "lon": 2.6502, "population": 416000 },
    { "name": "Las Palmas", "lat": 28.1235, "lon": -15.4363, "population": 379000 },
    { "name": "Bilbao", "lat": 43.2630, "lon": -2.9350, "population": 346000 },
    { "name": "Alicante", "lat": 38.3452, "lon": -0.4815, "population": 337000 },
    { "name": "Córdoba", "lat": 37.8882, "lon": -4.7794, "population": 326000 },
    { "name": "Valladolid", "lat": 41.6523, "lon": -4.7245, "population": 298000 },
    { "name": "Vigo", "lat": 42.2406, "lon": -8.7207, "population": 295000 },
    { "name": "Gijón", "lat": 43.5453, "lon": -5.6635, "population": 271000 },
    { "name": "Granada", "lat": 37.1773, "lon": -3.5986, "population": 232000 },
    { "name": "A Coruña", "lat": 43.3623, "lon": -8.4115, "population": 245000 },
    { "name": "Vitoria", "lat": 42.8467, "lon": -2.6726, "population": 252000 },
    { "name": "Elche", "lat": 38.2669, "lon": -0.6983, "population": 234000 },
    { "name": "Oviedo", "lat": 43.3619, "lon": -5.8494, "population": 220000 },
    { "name": "Santa Cruz", "lat": 28.4636, "lon": -16.2518, "population": 207000 },
    { "name": "Pamplona", "lat": 42.8125, "lon": -1.6458, "population": 203000 },
    { "name": "Santander", "lat": 43.4628, "lon": -3.8050, "population": 172000 },
    { "name": "Almería", "lat": 36.8340, "lon": -2.4637, "population": 198000 },
    { "name": "Burgos", "lat": 42.3439, "lon": -3.6969, "population": 176000 },
    { "name": "San Sebastián", "lat": 43.3183, "lon": -1.9812, "population": 187000 },
    { "name": "Salamanca", "lat": 40.9701, "lon": -5.6635, "population": 144000 },
    { "name": "Logroño", "lat": 42.4627, "lon": -2.4449, "population": 151000 },
    { "name": "Tarragona", "lat": 41.1189, "lon": 1.2445, "population": 134000 },
    { "name": "Lleida", "lat": 41.6176, "lon": 0.6200, "population": 139000 },
    { "name": "Cádiz", "lat": 36.5271, "lon": -6.2886, "population": 116000 },
    { "name": "Girona", "lat": 41.9794, "lon": 2.8214, "population": 103000 },
    { "name": "Badajoz", "lat": 38.8794, "lon": -6.9707, "population": 150000 },
    { "name": "Cartagena", "lat": 37.6257, "lon": -0.9966, "population": 216000 },
    { "name": "Jerez", "lat": 36.6850, "lon": -6.1263, "population": 212000 },
    { "name": "Toledo", "lat": 39.8628, "lon": -4.0273, "population": 84000 }
  ],
  "NOR": [
    { "name": "Oslo", "lat": 59.9115, "lon": 10.7579, "population": 1064000, "isCapital": true },
    { "name": "Bergen", "lat": 60.3888, "lon": 5.3240, "population": 285000 },
    { "name": "Trondheim", "lat": 63.4468, "lon": 10.4219, "population": 207000 },
    { "name": "Stavanger", "lat": 58.9700, "lon": 5.7331, "population": 144000 },
    { "name": "Drammen", "lat": 59.7441, "lon": 10.2045, "population": 101000 },
    { "name": "Fredrikstad", "lat": 59.2181, "lon": 10.9298, "population": 83000 },
    { "name": "Kristiansand", "lat": 58.1467, "lon": 7.9956, "population": 112000 },
    { "name": "Tromsø", "lat": 69.6496, "lon": 18.9560, "population": 77000 },
    { "name": "Sandnes", "lat": 58.8526, "lon": 5.7357, "population": 79000 },
    { "name": "Sarpsborg", "lat": 59.2841, "lon": 11.1094, "population": 57000 },
    { "name": "Skien", "lat": 59.2098, "lon": 9.6089, "population": 55000 },
    { "name": "Ålesund", "lat": 62.4723, "lon": 6.1495, "population": 52000 },
    { "name": "Bodø", "lat": 67.2804, "lon": 14.4049, "population": 52000 },
    { "name": "Tønsberg", "lat": 59.2674, "lon": 10.4076, "population": 56000 },
    { "name": "Moss", "lat": 59.4341, "lon": 10.6577, "population": 50000 },
    { "name": "Hamar", "lat": 60.7945, "lon": 11.0680, "population": 32000 },
    { "name": "Lillehammer", "lat": 61.1152, "lon": 10.4662, "population": 28000 }
  ],
  "SWE": [
    { "name": "Stockholm", "lat": 59.3346, "lon": 18.0632, "population": 975000, "isCapital": true },
    { "name": "Göteborg", "lat": 57.7089, "lon": 11.9746, "population": 583000 },
    { "name": "Malmö", "lat": 55.6059, "lon": 13.0007, "population": 347000 },
    { "name": "Uppsala", "lat": 59.8586, "lon": 17.6389, "population": 177000 },
    { "name": "Linköping", "lat": 58.4108, "lon": 15.6214, "population": 163000 },
    { "name": "Västerås", "lat": 59.6099, "lon": 16.5448, "population": 154000 },
    { "name": "Örebro", "lat": 59.2753, "lon": 15.2134, "population": 155000 },
    { "name": "Norrköping", "lat": 58.5877, "lon": 16.1924, "population": 143000 },
    { "name": "Helsingborg", "lat": 56.0465, "lon": 12.6945, "population": 149000 },
    { "name": "Jönköping", "lat": 57.7826, "lon": 14.1618, "population": 142000 },
    { "name": "Umeå", "lat": 63.8258, "lon": 20.2630, "population": 130000 },
    { "name": "Lund", "lat": 55.7047, "lon": 13.1910, "population": 124000 },
    { "name": "Gävle", "lat": 60.6749, "lon": 17.1413, "population": 102000 },
    { "name": "Borås", "lat": 57.7210, "lon": 12.9401, "population": 113000 },
    { "name": "Sundsvall", "lat": 62.3908, "lon": 17.3069, "population": 99000 },
    { "name": "Eskilstuna", "lat": 59.3666, "lon": 16.5077, "population": 106000 },
    { "name": "Södertälje", "lat": 59.1955, "lon": 17.6253, "population": 98000 },
    { "name": "Karlstad", "lat": 59.3793, "lon": 13.5036, "population": 94000 },
    { "name": "Halmstad", "lat": 56.6745, "lon": 12.8578, "population": 103000 },
    { "name": "Luleå", "lat": 65.5848, "lon": 22.1547, "population": 78000 },
    { "name": "Växjö", "lat": 56.8777, "lon": 14.8091, "population": 94000 }
  ],
  "BLR": [
    { "name": "Minsk", "lat": 53.9006, "lon": 27.5590, "population": 2009000, "isCapital": true },
    { "name": "Gomel", "lat": 52.4345, "lon": 30.9754, "population": 536000 },
    { "name": "Mogiljow", "lat": 53.9168, "lon": 30.3449, "population": 381000 },
    { "name": "Witebsk", "lat": 55.1904, "lon": 30.2049, "population": 378000 },
    { "name": "Hrodna", "lat": 53.6884, "lon": 23.8258, "population": 373000 },
    { "name": "Brest", "lat": 52.0976, "lon": 23.6877, "population": 350000 },
    { "name": "Babrujsk", "lat": 53.1384, "lon": 29.2214, "population": 217000 },
    { "name": "Baryssau", "lat": 54.2279, "lon": 28.5050, "population": 145000 },
    { "name": "Pinsk", "lat": 52.1229, "lon": 26.0951, "population": 138000 },
    { "name": "Orscha", "lat": 54.5081, "lon": 30.4172, "population": 117000 },
    { "name": "Masilousk", "lat": 53.4167, "lon": 26.6500, "population": 113000 },
    { "name": "Nawopolazk", "lat": 55.5311, "lon": 28.6560, "population": 98000 },
    { "name": "Salihorsk", "lat": 52.7878, "lon": 27.5406, "population": 106000 },
    { "name": "Lida", "lat": 53.8833, "lon": 25.2997, "population": 101000 }
  ],
  "AUS": [
    { "name": "Canberra", "lat": -35.2820, "lon": 149.1290, "population": 453000, "isCapital": true },
    { "name": "Sydney", "lat": -33.8651, "lon": 151.2099, "population": 5312000 },
    { "name": "Melbourne", "lat": -37.8409, "lon": 144.9464, "population": 5078000 },
    { "name": "Brisbane", "lat": -27.4701, "lon": 153.0211, "population": 2514000 },
    { "name": "Perth", "lat": -31.9535, "lon": 115.8571, "population": 2085000 },
    { "name": "Adelaide", "lat": -34.9212, "lon": 138.5995, "population": 1376000 },
    { "name": "Gold Coast", "lat": -28.0167, "lon": 153.4000, "population": 679000 },
    { "name": "Newcastle", "lat": -32.9167, "lon": 151.7500, "population": 322000 },
    { "name": "Wollongong", "lat": -34.4251, "lon": 150.8931, "population": 302000 },
    { "name": "Hobart", "lat": -42.8806, "lon": 147.3250, "population": 238000 },
    { "name": "Geelong", "lat": -38.1500, "lon": 144.3500, "population": 196000 },
    { "name": "Townsville", "lat": -19.2590, "lon": 146.8170, "population": 181000 },
    { "name": "Cairns", "lat": -16.9255, "lon": 145.7541, "population": 156000 },
    { "name": "Darwin", "lat": -12.4628, "lon": 130.8418, "population": 147000 },
    { "name": "Toowoomba", "lat": -27.5667, "lon": 151.9500, "population": 137000 },
    { "name": "Ballarat", "lat": -37.5500, "lon": 143.8500, "population": 109000 },
    { "name": "Bendigo", "lat": -36.7578, "lon": 144.2787, "population": 100000 },
    { "name": "Launceston", "lat": -41.4298, "lon": 147.1571, "population": 87000 },
    { "name": "Mackay", "lat": -21.1411, "lon": 149.1861, "population": 80000 },
    { "name": "Rockhampton", "lat": -23.3781, "lon": 150.5100, "population": 79000 },
    { "name": "Bunbury", "lat": -33.3271, "lon": 115.6414, "population": 75000 },
    { "name": "Albury", "lat": -36.0808, "lon": 146.9165, "population": 54000 }
  ],
  "FIN": [
    { "name": "Helsinki", "lat": 60.1699, "lon": 24.9384, "population": 656000, "isCapital": true },
    { "name": "Espoo", "lat": 60.2052, "lon": 24.6522, "population": 292000 },
    { "name": "Tampere", "lat": 61.4978, "lon": 23.7610, "population": 244000 },
    { "name": "Vantaa", "lat": 60.2934, "lon": 25.0378, "population": 238000 },
    { "name": "Oulu", "lat": 65.0142, "lon": 25.4719, "population": 209000 },
    { "name": "Turku", "lat": 60.4518, "lon": 22.2666, "population": 195000 },
    { "name": "Jyväskylä", "lat": 62.2426, "lon": 25.7473, "population": 144000 },
    { "name": "Lahti", "lat": 60.9827, "lon": 25.6612, "population": 120000 },
    { "name": "Kuopio", "lat": 62.8924, "lon": 27.6783, "population": 120000 },
    { "name": "Pori", "lat": 61.4851, "lon": 21.7974, "population": 84000 },
    { "name": "Kouvola", "lat": 60.8681, "lon": 26.7043, "population": 82000 },
    { "name": "Joensuu", "lat": 62.6010, "lon": 29.7636, "population": 77000 },
    { "name": "Lappeenranta", "lat": 61.0587, "lon": 28.1887, "population": 72000 },
    { "name": "Hämeenlinna", "lat": 61.0000, "lon": 24.4414, "population": 68000 },
    { "name": "Vaasa", "lat": 63.0960, "lon": 21.6158, "population": 67000 },
    { "name": "Seinäjoki", "lat": 62.7903, "lon": 22.8403, "population": 64000 },
    { "name": "Rovaniemi", "lat": 66.5039, "lon": 25.7294, "population": 63000 },
    { "name": "Kotka", "lat": 60.4664, "lon": 26.9458, "population": 52000 },
    { "name": "Mikkeli", "lat": 61.6886, "lon": 27.2721, "population": 51000 },
    { "name": "Porvoo", "lat": 60.3958, "lon": 25.6650, "population": 50000 },
    { "name": "Kokkola", "lat": 63.8377, "lon": 23.1303, "population": 48000 },
    { "name": "Kajaani", "lat": 64.2273, "lon": 27.7285, "population": 37000 }
  ],
  "AUT": [
    { "name": "Wien", "lat": 48.2082, "lon": 16.3738, "population": 1897000, "isCapital": true },
    { "name": "Graz", "lat": 47.0707, "lon": 15.4395, "population": 291000 },
    { "name": "Linz", "lat": 48.3069, "lon": 14.2858, "population": 206000 },
    { "name": "Salzburg", "lat": 47.8095, "lon": 13.0550, "population": 155000 },
    { "name": "Innsbruck", "lat": 47.2692, "lon": 11.3933, "population": 131000 },
    { "name": "Klagenfurt", "lat": 46.6247, "lon": 14.3050, "population": 101000 },
    { "name": "Villach", "lat": 46.6111, "lon": 13.8558, "population": 63000 },
    { "name": "Wels", "lat": 48.1575, "lon": 14.0289, "population": 62000 },
    { "name": "St. Pölten", "lat": 48.2058, "lon": 15.6222, "population": 56000 },
    { "name": "Dornbirn", "lat": 47.4125, "lon": 9.7417, "population": 50000 },
    { "name": "Wiener Neustadt", "lat": 47.8139, "lon": 16.2433, "population": 46000 },
    { "name": "Steyr", "lat": 48.0427, "lon": 14.4213, "population": 38000 },
    { "name": "Feldkirch", "lat": 47.2396, "lon": 9.5984, "population": 34000 },
    { "name": "Bregenz", "lat": 47.5031, "lon": 9.7471, "population": 29000 },
    { "name": "Leonding", "lat": 48.2600, "lon": 14.2500, "population": 29000 },
    { "name": "Klosterneuburg", "lat": 48.3053, "lon": 16.3256, "population": 28000 },
    { "name": "Baden", "lat": 48.0069, "lon": 16.2308, "population": 26000 },
    { "name": "Wolfsberg", "lat": 46.8414, "lon": 14.8408, "population": 25000 },
    { "name": "Leoben", "lat": 47.3765, "lon": 15.0910, "population": 25000 },
    { "name": "Krems an der Donau", "lat": 48.4092, "lon": 15.6142, "population": 25000 },
    { "name": "Traun", "lat": 48.2228, "lon": 14.2378, "population": 24000 },
    { "name": "Amstetten", "lat": 48.1228, "lon": 14.8742, "population": 24000 },
    { "name": "Lustenau", "lat": 47.4267, "lon": 9.6592, "population": 23000 },
    { "name": "Kapfenberg", "lat": 47.4444, "lon": 15.2911, "population": 22000 },
    { "name": "Mödling", "lat": 48.0856, "lon": 16.2836, "population": 21000 },
    { "name": "Hallein", "lat": 47.6833, "lon": 13.1000, "population": 21000 },
    { "name": "Kufstein", "lat": 47.5833, "lon": 12.1667, "population": 19000 },
    { "name": "Braunau am Inn", "lat": 48.2583, "lon": 13.0333, "population": 17000 },
    { "name": "Schwechat", "lat": 48.1381, "lon": 16.4708, "population": 18000 },
    { "name": "Spittal an der Drau", "lat": 46.7986, "lon": 13.4958, "population": 16000 },
    { "name": "Tulln", "lat": 48.3281, "lon": 16.0586, "population": 16000 },
    { "name": "Bruck an der Mur", "lat": 47.4108, "lon": 15.2717, "population": 16000 },
    { "name": "Ried im Innkreis", "lat": 48.2100, "lon": 13.4900, "population": 12000 },
    { "name": "Lienz", "lat": 46.8294, "lon": 12.7694, "population": 12000 }
  ],
  "CZE": [
    { "name": "Prag", "lat": 50.0755, "lon": 14.4378, "population": 1309000, "isCapital": true },
    { "name": "Brünn", "lat": 49.1951, "lon": 16.6068, "population": 381000 },
    { "name": "Ostrau", "lat": 49.8209, "lon": 18.2625, "population": 290000 },
    { "name": "Pilsen", "lat": 49.7384, "lon": 13.3736, "population": 175000 },
    { "name": "Reichenberg", "lat": 50.7663, "lon": 15.0543, "population": 104000 },
    { "name": "Olmütz", "lat": 49.5938, "lon": 17.2509, "population": 101000 },
    { "name": "Budweis", "lat": 48.9745, "lon": 14.4743, "population": 94000 },
    { "name": "Aussig", "lat": 50.6607, "lon": 14.0323, "population": 92000 },
    { "name": "Hradec Králové", "lat": 50.2104, "lon": 15.8253, "population": 92000 },
    { "name": "Pardubice", "lat": 50.0343, "lon": 15.7812, "population": 91000 },
    { "name": "Zlín", "lat": 49.2267, "lon": 17.6669, "population": 75000 },
    { "name": "Havířov", "lat": 49.7808, "lon": 18.4308, "population": 72000 },
    { "name": "Kladno", "lat": 50.1478, "lon": 14.1031, "population": 69000 },
    { "name": "Most", "lat": 50.5031, "lon": 13.6364, "population": 67000 },
    { "name": "Opava", "lat": 49.9383, "lon": 17.9047, "population": 57000 },
    { "name": "Frýdek-Místek", "lat": 49.6886, "lon": 18.3508, "population": 56000 },
    { "name": "Karviná", "lat": 49.8542, "lon": 18.5414, "population": 53000 },
    { "name": "Jihlava", "lat": 49.3961, "lon": 15.5911, "population": 51000 },
    { "name": "Teplice", "lat": 50.6404, "lon": 13.8244, "population": 50000 },
    { "name": "Děčín", "lat": 50.7814, "lon": 14.2142, "population": 49000 },
    { "name": "Karlsbad", "lat": 50.2325, "lon": 12.8715, "population": 49000 },
    { "name": "Chomutov", "lat": 50.4603, "lon": 13.4179, "population": 48000 },
    { "name": "Jablonec nad Nisou", "lat": 50.7247, "lon": 15.1710, "population": 45000 },
    { "name": "Mladá Boleslav", "lat": 50.4111, "lon": 14.9061, "population": 44000 },
    { "name": "Prostějov", "lat": 49.4722, "lon": 17.1117, "population": 44000 },
    { "name": "Přerov", "lat": 49.4553, "lon": 17.4511, "population": 44000 },
    { "name": "Třebíč", "lat": 49.2148, "lon": 15.8817, "population": 36000 },
    { "name": "Třinec", "lat": 49.6775, "lon": 18.6719, "population": 36000 },
    { "name": "Tábor", "lat": 49.4144, "lon": 14.6578, "population": 34000 },
    { "name": "Znojmo", "lat": 48.8556, "lon": 16.0486, "population": 34000 }
  ],
  "CHE": [
    { "name": "Zürich", "lat": 47.3769, "lon": 8.5417, "population": 421000, "isCapital": false },
    { "name": "Genf", "lat": 46.2044, "lon": 6.1432, "population": 203000 },
    { "name": "Basel", "lat": 47.5596, "lon": 7.5886, "population": 178000 },
    { "name": "Bern", "lat": 46.9480, "lon": 7.4474, "population": 134000, "isCapital": true },
    { "name": "Lausanne", "lat": 46.5197, "lon": 6.6323, "population": 140000 },
    { "name": "Winterthur", "lat": 47.5001, "lon": 8.7240, "population": 115000 },
    { "name": "Luzern", "lat": 47.0502, "lon": 8.3093, "population": 82000 },
    { "name": "St. Gallen", "lat": 47.4245, "lon": 9.3767, "population": 76000 },
    { "name": "Lugano", "lat": 46.0037, "lon": 8.9511, "population": 63000 },
    { "name": "Biel/Bienne", "lat": 47.1368, "lon": 7.2467, "population": 55000 },
    { "name": "Thun", "lat": 46.7580, "lon": 7.6280, "population": 44000 },
    { "name": "Köniz", "lat": 46.9209, "lon": 7.4153, "population": 43000 },
    { "name": "Fribourg", "lat": 46.8065, "lon": 7.1620, "population": 38000 },
    { "name": "La Chaux-de-Fonds", "lat": 47.1035, "lon": 6.8283, "population": 37000 },
    { "name": "Schaffhausen", "lat": 47.6960, "lon": 8.6350, "population": 36000 },
    { "name": "Chur", "lat": 46.8508, "lon": 9.5320, "population": 35000 },
    { "name": "Neuenburg", "lat": 46.9930, "lon": 6.9320, "population": 34000 },
    { "name": "Uster", "lat": 47.3472, "lon": 8.7217, "population": 35000 },
    { "name": "Sion", "lat": 46.2333, "lon": 7.3603, "population": 34000 },
    { "name": "Emmen", "lat": 47.0833, "lon": 8.3000, "population": 31000 },
    { "name": "Aarau", "lat": 47.3925, "lon": 8.0442, "population": 22000 },
    { "name": "Rapperswil-Jona", "lat": 47.2268, "lon": 8.8319, "population": 27000 },
    { "name": "Wil", "lat": 47.4614, "lon": 9.0447, "population": 24000 },
    { "name": "Bellinzona", "lat": 46.1945, "lon": 9.0234, "population": 18000 },
    { "name": "Olten", "lat": 47.3500, "lon": 7.9000, "population": 18000 },
    { "name": "Baden", "lat": 47.4733, "lon": 8.3066, "population": 19000 },
    { "name": "Solothurn", "lat": 47.2088, "lon": 7.5375, "population": 17000 },
    { "name": "Locarno", "lat": 46.1709, "lon": 8.7994, "population": 16000 },
    { "name": "Interlaken", "lat": 46.6863, "lon": 7.8632, "population": 6000 },
    { "name": "Davos", "lat": 46.8003, "lon": 9.8360, "population": 11000 }
  ],
  "MEX": [
    { "name": "Mexiko-Stadt", "lat": 19.4326, "lon": -99.1332, "population": 21804515, "isCapital": true },
    { "name": "Monterrey", "lat": 25.6866, "lon": -100.3161, "population": 5341177 },
    { "name": "Guadalajara", "lat": 20.6597, "lon": -103.3496, "population": 5268642 },
    { "name": "Puebla", "lat": 19.0414, "lon": -98.2063, "population": 3199530 },
    { "name": "Toluca", "lat": 19.2879, "lon": -99.6532, "population": 2353924 },
    { "name": "Tijuana", "lat": 32.5225, "lon": -117.0466, "population": 2157853 },
    { "name": "León", "lat": 21.1167, "lon": -101.6833, "population": 1924771 },
    { "name": "Querétaro", "lat": 20.5881, "lon": -100.3899, "population": 1594212 },
    { "name": "Ciudad Juárez", "lat": 31.6904, "lon": -106.4245, "population": 1512450 },
    { "name": "La Laguna", "lat": 25.5428, "lon": -103.4068, "population": 1434283 },
    { "name": "Mérida", "lat": 20.9754, "lon": -89.6170, "population": 1316088 },
    { "name": "San Luis Potosí", "lat": 22.1565, "lon": -100.9855, "population": 1271366 },
    { "name": "Aguascalientes", "lat": 21.8818, "lon": -102.2916, "population": 1140916 },
    { "name": "Cuernavaca", "lat": 18.9242, "lon": -99.2216, "population": 1028589 },
    { "name": "Mexicali", "lat": 32.6278, "lon": -115.4545, "population": 1049792 },
    { "name": "Saltillo", "lat": 25.4232, "lon": -100.9953, "population": 1031779 },
    { "name": "Culiacán", "lat": 24.7994, "lon": -107.3878, "population": 1003530 },
    { "name": "Chihuahua", "lat": 28.6353, "lon": -106.0889, "population": 988065 },
    { "name": "Morelia", "lat": 19.7060, "lon": -101.1950, "population": 988704 },
    { "name": "Hermosillo", "lat": 29.0729, "lon": -110.9559, "population": 936263 },
    { "name": "Veracruz", "lat": 19.1738, "lon": -96.1342, "population": 939046 },
    { "name": "Cancún", "lat": 21.1619, "lon": -86.8515, "population": 934189 },
    { "name": "Tampico", "lat": 22.2331, "lon": -97.8611, "population": 927379 },
    { "name": "Acapulco", "lat": 16.8531, "lon": -99.8237, "population": 852622 },
    { "name": "Tuxtla Gutiérrez", "lat": 16.7528, "lon": -93.1028, "population": 848274 },
    { "name": "Reynosa", "lat": 26.0922, "lon": -98.2783, "population": 837251 },
    { "name": "Villahermosa", "lat": 17.9892, "lon": -92.9475, "population": 833907 },
    { "name": "Xalapa", "lat": 19.5438, "lon": -96.9102, "population": 789157 },
    { "name": "Oaxaca de Juárez", "lat": 17.0732, "lon": -96.7266, "population": 713925 },
    { "name": "Celaya", "lat": 20.5236, "lon": -100.8157, "population": 767104 },
    { "name": "Durango", "lat": 24.0277, "lon": -104.6532, "population": 688697 },
    { "name": "Pachuca", "lat": 20.1011, "lon": -98.7591, "population": 665929 },
    { "name": "Tlaxcala", "lat": 19.3182, "lon": -98.2375, "population": 570308 },
    { "name": "Ensenada", "lat": 31.8667, "lon": -116.5964, "population": 561375 },
    { "name": "Matamoros", "lat": 25.8697, "lon": -97.5028, "population": 541979 },
    { "name": "Poza Rica", "lat": 20.5331, "lon": -97.4597, "population": 521530 },
    { "name": "Mazatlán", "lat": 23.2494, "lon": -106.4111, "population": 501441 },
    { "name": "Tepic", "lat": 21.5039, "lon": -104.8946, "population": 491153 },
    { "name": "Cuautla", "lat": 18.8120, "lon": -98.9544, "population": 483455 },
    { "name": "Puerto Vallarta", "lat": 20.6534, "lon": -105.2253, "population": 479471 },
    { "name": "Orizaba", "lat": 18.8504, "lon": -97.1000, "population": 465175 },
    { "name": "Irapuato", "lat": 20.6767, "lon": -101.3479, "population": 460028 },
    { "name": "Nuevo Laredo", "lat": 27.4861, "lon": -99.5069, "population": 425058 },
    { "name": "Zacatecas", "lat": 22.7709, "lon": -102.5833, "population": 405285 },
    { "name": "Colima", "lat": 19.2452, "lon": -103.7241, "population": 380575 },
    { "name": "Monclova", "lat": 26.9072, "lon": -101.4225, "population": 374247 },
    { "name": "Coatzacoalcos", "lat": 18.1346, "lon": -94.4580, "population": 355738 },
    { "name": "Tehuacán", "lat": 18.4617, "lon": -97.3928, "population": 357621 },
    { "name": "Tapachula", "lat": 14.9032, "lon": -92.2617, "population": 353706 },
    { "name": "Ciudad Victoria", "lat": 23.7369, "lon": -99.1411, "population": 349688 },
    { "name": "Córdoba", "lat": 18.8839, "lon": -96.9344, "population": 335950 },
    { "name": "Chilpancingo", "lat": 17.5551, "lon": -99.5050, "population": 336480 },
    { "name": "Campeche", "lat": 19.8301, "lon": -90.5349, "population": 294077 },
    { "name": "La Paz", "lat": 24.1426, "lon": -110.3128, "population": 292241 },
    { "name": "Zamora", "lat": 19.9856, "lon": -102.2836, "population": 273641 },
    { "name": "Nogales", "lat": 31.3317, "lon": -110.9347, "population": 264782 }
  ],
  "KAZ": [
    { "name": "Almaty", "lat": 43.2220, "lon": 76.8512, "population": 2162000 },
    { "name": "Astana", "lat": 51.1694, "lon": 71.4491, "population": 1355000, "isCapital": true },
    { "name": "Schymkent", "lat": 42.3417, "lon": 69.5901, "population": 1192000 },
    { "name": "Aktobe", "lat": 50.2797, "lon": 57.2072, "population": 560000 },
    { "name": "Karaganda", "lat": 49.8333, "lon": 73.1667, "population": 516000 },
    { "name": "Taras", "lat": 42.9008, "lon": 71.3781, "population": 427000 },
    { "name": "Öskemen", "lat": 49.9714, "lon": 82.6059, "population": 353000 },
    { "name": "Pawlodar", "lat": 52.2833, "lon": 76.9667, "population": 334000 },
    { "name": "Atyrau", "lat": 47.1050, "lon": 51.9246, "population": 316000 },
    { "name": "Semei", "lat": 50.4268, "lon": 80.2667, "population": 308000 },
    { "name": "Kysylorda", "lat": 44.8528, "lon": 65.5092, "population": 279000 },
    { "name": "Kostanai", "lat": 53.2198, "lon": 63.6354, "population": 264000 },
    { "name": "Aktau", "lat": 43.6500, "lon": 51.1667, "population": 264000 },
    { "name": "Oral", "lat": 51.2333, "lon": 51.3667, "population": 254000 },
    { "name": "Petropawl", "lat": 54.8732, "lon": 69.1505, "population": 222000 },
    { "name": "Türkistan", "lat": 43.2973, "lon": 68.2518, "population": 220000 },
    { "name": "Kökschetau", "lat": 53.2825, "lon": 69.3969, "population": 175000 },
    { "name": "Temirtau", "lat": 50.0549, "lon": 72.9646, "population": 172000 },
    { "name": "Taldykorgan", "lat": 45.0156, "lon": 78.3739, "population": 169000 },
    { "name": "Ekibastus", "lat": 51.7237, "lon": 75.3229, "population": 129000 },
    { "name": "Rudny", "lat": 52.9729, "lon": 63.1168, "population": 112000 },
    { "name": "Sheskasghan", "lat": 47.7833, "lon": 67.7667, "population": 89000 },
    { "name": "Balchasch", "lat": 46.8481, "lon": 74.9950, "population": 81000 },
    { "name": "Kentau", "lat": 43.5162, "lon": 68.5090, "population": 74000 },
    { "name": "Shanaozen", "lat": 43.3412, "lon": 52.8619, "population": 74000 },
    { "name": "Ridder", "lat": 50.3382, "lon": 83.5063, "population": 53000 },
    { "name": "Arys", "lat": 42.4333, "lon": 68.8000, "population": 52000 },
    { "name": "Aksu", "lat": 52.0333, "lon": 76.9167, "population": 52000 },
    { "name": "Kulsary", "lat": 46.9691, "lon": 54.0068, "population": 51000 },
    { "name": "Stepnogorsk", "lat": 52.3553, "lon": 71.8864, "population": 47000 },
    { "name": "Talghar", "lat": 43.3044, "lon": 77.2328, "population": 42000 },
    { "name": "Kapschagai", "lat": 43.8833, "lon": 77.0833, "population": 42000 },
    { "name": "Arkalyk", "lat": 50.2492, "lon": 66.9203, "population": 42000 },
    { "name": "Lisakowsk", "lat": 52.5471, "lon": 62.4999, "population": 40000 },
    { "name": "Schu", "lat": 43.6000, "lon": 73.7000, "population": 40000 },
    { "name": "Atbassar", "lat": 51.8000, "lon": 68.3333, "population": 35000 },
    { "name": "Aral", "lat": 46.6833, "lon": 61.7500, "population": 33000 },
    { "name": "Baikonur", "lat": 45.6147, "lon": 63.3107, "population": 33000 }
  ],
  "BRA": [
    { "name": "Brasília", "lat": -15.7975, "lon": -47.8919, "population": 2817068, "isCapital": true },
    { "name": "São Paulo", "lat": -23.5505, "lon": -46.6333, "population": 11451245 },
    { "name": "Rio de Janeiro", "lat": -22.9068, "lon": -43.1729, "population": 6211423 },
    { "name": "Fortaleza", "lat": -3.7172, "lon": -38.5433, "population": 2428678 },
    { "name": "Salvador", "lat": -12.9714, "lon": -38.5108, "population": 2418005 },
    { "name": "Belo Horizonte", "lat": -19.9167, "lon": -43.9345, "population": 2315560 },
    { "name": "Manaus", "lat": -3.1190, "lon": -60.0217, "population": 2063547 },
    { "name": "Curitiba", "lat": -25.4284, "lon": -49.2733, "population": 1773733 },
    { "name": "Recife", "lat": -8.0476, "lon": -34.8770, "population": 1488920 },
    { "name": "Goiânia", "lat": -16.6869, "lon": -49.2648, "population": 1437237 },
    { "name": "Porto Alegre", "lat": -30.0346, "lon": -51.2177, "population": 1332570 },
    { "name": "Belém", "lat": -1.4558, "lon": -48.5024, "population": 1303389 },
    { "name": "Guarulhos", "lat": -23.4538, "lon": -46.5333, "population": 1291784 },
    { "name": "Campinas", "lat": -22.9099, "lon": -47.0626, "population": 1138309 },
    { "name": "São Luís", "lat": -2.5297, "lon": -44.2825, "population": 1037775 },
    { "name": "Maceió", "lat": -9.6658, "lon": -35.7353, "population": 957916 },
    { "name": "Campo Grande", "lat": -20.4697, "lon": -54.6201, "population": 897938 },
    { "name": "São Gonçalo", "lat": -22.8269, "lon": -43.0634, "population": 896744 },
    { "name": "Teresina", "lat": -5.0892, "lon": -42.8019, "population": 866300 },
    { "name": "João Pessoa", "lat": -7.1195, "lon": -34.8450, "population": 833932 },
    { "name": "São Bernardo do Campo", "lat": -23.6914, "lon": -46.5646, "population": 810729 },
    { "name": "Duque de Caxias", "lat": -22.7856, "lon": -43.3117, "population": 808152 },
    { "name": "Nova Iguaçu", "lat": -22.7592, "lon": -43.4510, "population": 785882 },
    { "name": "Natal", "lat": -5.7945, "lon": -35.2110, "population": 751300 },
    { "name": "Santo André", "lat": -23.6737, "lon": -46.5432, "population": 748919 },
    { "name": "Osasco", "lat": -23.5325, "lon": -46.7917, "population": 743432 },
    { "name": "Sorocaba", "lat": -23.5015, "lon": -47.4526, "population": 723574 },
    { "name": "Uberlândia", "lat": -18.9186, "lon": -48.2772, "population": 713232 },
    { "name": "Ribeirão Preto", "lat": -21.1704, "lon": -47.8103, "population": 698259 },
    { "name": "São José dos Campos", "lat": -23.1896, "lon": -45.8841, "population": 697428 },
    { "name": "Cuiabá", "lat": -15.6014, "lon": -56.0979, "population": 650912 },
    { "name": "Jaboatão dos Guararapes", "lat": -8.1130, "lon": -35.0151, "population": 643759 },
    { "name": "Contagem", "lat": -19.9320, "lon": -44.0539, "population": 621865 },
    { "name": "Joinville", "lat": -26.3045, "lon": -48.8487, "population": 616323 },
    { "name": "Feira de Santana", "lat": -12.2669, "lon": -38.9666, "population": 616279 },
    { "name": "Aracaju", "lat": -10.9091, "lon": -37.0677, "population": 602757 },
    { "name": "Londrina", "lat": -23.3045, "lon": -51.1696, "population": 555937 },
    { "name": "Juiz de Fora", "lat": -21.7642, "lon": -43.3503, "population": 540756 },
    { "name": "Florianópolis", "lat": -27.5954, "lon": -48.5480, "population": 537213 },
    { "name": "Aparecida de Goiânia", "lat": -16.8198, "lon": -49.2469, "population": 527550 },
    { "name": "Serra", "lat": -20.1209, "lon": -40.3075, "population": 520649 },
    { "name": "Campos dos Goytacazes", "lat": -21.7545, "lon": -41.3244, "population": 483551 },
    { "name": "Belford Roxo", "lat": -22.7643, "lon": -43.3995, "population": 483087 },
    { "name": "Niterói", "lat": -22.8833, "lon": -43.1036, "population": 481758 },
    { "name": "São José do Rio Preto", "lat": -20.8113, "lon": -49.3758, "population": 480439 },
    { "name": "Ananindeua", "lat": -1.3659, "lon": -48.3886, "population": 478778 },
    { "name": "Vila Velha", "lat": -20.3297, "lon": -40.2925, "population": 467722 },
    { "name": "Caxias do Sul", "lat": -29.1681, "lon": -51.1794, "population": 463338 },
    { "name": "Porto Velho", "lat": -8.7612, "lon": -63.9004, "population": 460413 },
    { "name": "Mogi das Cruzes", "lat": -23.5229, "lon": -46.1853, "population": 449955 },
    { "name": "Jundiaí", "lat": -23.1857, "lon": -46.8978, "population": 443116 },
    { "name": "Macapá", "lat": 0.0349, "lon": -51.0694, "population": 442933 },
    { "name": "São João de Meriti", "lat": -22.8058, "lon": -43.3722, "population": 440962 },
    { "name": "Piracicaba", "lat": -22.7338, "lon": -47.6476, "population": 423323 },
    { "name": "Campina Grande", "lat": -7.2306, "lon": -35.8811, "population": 419379 },
    { "name": "Santos", "lat": -23.9608, "lon": -46.3336, "population": 418608 },
    { "name": "Mauá", "lat": -23.6678, "lon": -46.4614, "population": 418261 },
    { "name": "Montes Claros", "lat": -16.7350, "lon": -43.8617, "population": 414240 },
    { "name": "Boa Vista", "lat": 2.8195, "lon": -60.6714, "population": 413486 },
    { "name": "Betim", "lat": -19.9680, "lon": -44.1983, "population": 411859 },
    { "name": "Maringá", "lat": -23.4205, "lon": -51.9333, "population": 409657 },
    { "name": "Anápolis", "lat": -16.3281, "lon": -48.9530, "population": 398817 },
    { "name": "Diadema", "lat": -23.6861, "lon": -46.6228, "population": 393237 },
    { "name": "Carapicuíba", "lat": -23.5224, "lon": -46.8357, "population": 387121 },
    { "name": "Petrolina", "lat": -9.3891, "lon": -40.5027, "population": 386786 },
    { "name": "Bauru", "lat": -22.3246, "lon": -49.0871, "population": 379146 },
    { "name": "Caruaru", "lat": -8.2823, "lon": -35.9761, "population": 378052 },
    { "name": "Vitória da Conquista", "lat": -14.8619, "lon": -40.8444, "population": 370868 },
    { "name": "Rio Branco", "lat": -9.9747, "lon": -67.8100, "population": 364756 },
    { "name": "Blumenau", "lat": -26.9194, "lon": -49.0661, "population": 361261 },
    { "name": "Ponta Grossa", "lat": -25.0994, "lon": -50.1583, "population": 358367 },
    { "name": "Caucaia", "lat": -3.7361, "lon": -38.6531, "population": 355679 },
    { "name": "Franca", "lat": -20.5390, "lon": -47.4009, "population": 352537 },
    { "name": "Olinda", "lat": -8.0089, "lon": -34.8553, "population": 349976 },
    { "name": "Cascavel", "lat": -24.9578, "lon": -53.4596, "population": 348051 },
    { "name": "Canoas", "lat": -29.9178, "lon": -51.1736, "population": 347657 },
    { "name": "Vitória", "lat": -20.3155, "lon": -40.3128, "population": 322869 },
    { "name": "Palmas", "lat": -10.1689, "lon": -48.3317, "population": 302692 }
  ],
  "TUR": [
    { "name": "Ankara", "lat": 39.9334, "lon": 32.8597, "population": 5663322, "isCapital": true },
    { "name": "Istanbul", "lat": 41.0082, "lon": 28.9784, "population": 15462452 },
    { "name": "Izmir", "lat": 38.4237, "lon": 27.1428, "population": 4367251 },
    { "name": "Bursa", "lat": 40.1885, "lon": 29.0610, "population": 3056120 },
    { "name": "Antalya", "lat": 36.8969, "lon": 30.7133, "population": 2548308 },
    { "name": "Adana", "lat": 37.0000, "lon": 35.3213, "population": 2237940 },
    { "name": "Konya", "lat": 37.8746, "lon": 32.4932, "population": 2250020 },
    { "name": "Gaziantep", "lat": 37.0662, "lon": 37.3833, "population": 2101157 },
    { "name": "Mersin", "lat": 36.8121, "lon": 34.6415, "population": 1868757 },
    { "name": "Diyarbakir", "lat": 37.9144, "lon": 40.2306, "population": 1783431 },
    { "name": "Kayseri", "lat": 38.7312, "lon": 35.4787, "population": 1407409 },
    { "name": "Samsun", "lat": 41.2867, "lon": 36.3300, "population": 1348542 },
    { "name": "Eskisehir", "lat": 39.7667, "lon": 30.5256, "population": 887475 },
    { "name": "Trabzon", "lat": 41.0027, "lon": 39.7168, "population": 808974 },
    { "name": "Kocaeli", "lat": 40.8533, "lon": 29.8815, "population": 1953035 },
    { "name": "Sanliurfa", "lat": 37.1674, "lon": 38.7955, "population": 2073614 },
    { "name": "Malatya", "lat": 38.3552, "lon": 38.3095, "population": 800165 },
    { "name": "Erzurum", "lat": 39.9055, "lon": 41.2658, "population": 762321 },
    { "name": "Van", "lat": 38.4891, "lon": 43.3800, "population": 1136757 },
    { "name": "Denizli", "lat": 37.7765, "lon": 29.0864, "population": 1037208 },
    { "name": "Manisa", "lat": 38.6191, "lon": 27.4289, "population": 1440611 },
    { "name": "Sakarya", "lat": 40.6940, "lon": 30.4028, "population": 1029650 },
    { "name": "Zonguldak", "lat": 41.4564, "lon": 31.7987, "population": 596053 },
    { "name": "Kahramanmaras", "lat": 37.5858, "lon": 36.9371, "population": 1154102 },
    { "name": "Elazig", "lat": 38.6810, "lon": 39.2264, "population": 587960 }
  ],
  "GRL": [
    { "name": "Nuuk", "lat": 64.1836, "lon": -51.7214, "population": 19261, "isCapital": true },
    { "name": "Sisimiut", "lat": 66.9389, "lon": -53.6735, "population": 5598 },
    { "name": "Ilulissat", "lat": 69.2198, "lon": -51.0986, "population": 4905 },
    { "name": "Qaqortoq", "lat": 60.7184, "lon": -46.0353, "population": 3050 },
    { "name": "Aasiaat", "lat": 68.7098, "lon": -52.8694, "population": 3000 },
    { "name": "Maniitsoq", "lat": 65.4131, "lon": -52.9001, "population": 2534 },
    { "name": "Tasiilaq", "lat": 65.6145, "lon": -37.6368, "population": 2017 },
    { "name": "Narsaq", "lat": 60.9167, "lon": -46.0500, "population": 1345 },
    { "name": "Paamiut", "lat": 61.9931, "lon": -49.6678, "population": 1311 },
    { "name": "Uummannaq", "lat": 70.6753, "lon": -52.1233, "population": 1207 },
    { "name": "Upernavik", "lat": 72.7869, "lon": -56.1497, "population": 1100 },
    { "name": "Qaanaaq", "lat": 77.4669, "lon": -69.3631, "population": 646 },
    { "name": "Kangerlussuaq", "lat": 67.0122, "lon": -50.7116, "population": 512 }
  ],
  "CHL": [
    { "name": "Santiago", "lat": -33.4489, "lon": -70.6693, "population": 6310000, "isCapital": true },
    { "name": "Valparaiso", "lat": -33.0472, "lon": -71.6127, "population": 984000 },
    { "name": "Concepcion", "lat": -36.8270, "lon": -73.0498, "population": 780000 },
    { "name": "Antofagasta", "lat": -23.6509, "lon": -70.3975, "population": 425000 },
    { "name": "Temuco", "lat": -38.7359, "lon": -72.5904, "population": 408000 },
    { "name": "Rancagua", "lat": -34.1708, "lon": -70.7404, "population": 290000 },
    { "name": "Talca", "lat": -35.4264, "lon": -71.6554, "population": 260000 },
    { "name": "Arica", "lat": -18.4783, "lon": -70.3126, "population": 247000 },
    { "name": "Iquique", "lat": -20.2208, "lon": -70.1431, "population": 227000 },
    { "name": "Puerto Montt", "lat": -41.4689, "lon": -72.9411, "population": 245000 },
    { "name": "La Serena", "lat": -29.9027, "lon": -71.2519, "population": 221000 },
    { "name": "Chillan", "lat": -36.6066, "lon": -72.1034, "population": 184000 },
    { "name": "Osorno", "lat": -40.5735, "lon": -73.1353, "population": 170000 },
    { "name": "Valdivia", "lat": -39.8142, "lon": -73.2459, "population": 166000 },
    { "name": "Copiapo", "lat": -27.3668, "lon": -70.3323, "population": 162000 },
    { "name": "Punta Arenas", "lat": -53.1638, "lon": -70.9171, "population": 131000 },
    { "name": "Coyhaique", "lat": -45.5712, "lon": -72.0685, "population": 57000 }
  ],
  "PER": [
    { "name": "Lima", "lat": -12.0464, "lon": -77.0428, "population": 10882000, "isCapital": true },
    { "name": "Arequipa", "lat": -16.4090, "lon": -71.5375, "population": 1080000 },
    { "name": "Trujillo", "lat": -8.1116, "lon": -79.0288, "population": 919000 },
    { "name": "Chiclayo", "lat": -6.7714, "lon": -79.8409, "population": 600000 },
    { "name": "Piura", "lat": -5.1945, "lon": -80.6328, "population": 484000 },
    { "name": "Iquitos", "lat": -3.7491, "lon": -73.2538, "population": 471000 },
    { "name": "Cusco", "lat": -13.5320, "lon": -71.9675, "population": 428000 },
    { "name": "Huancayo", "lat": -12.0651, "lon": -75.2049, "population": 404000 },
    { "name": "Chimbote", "lat": -9.0746, "lon": -78.5936, "population": 371000 },
    { "name": "Pucallpa", "lat": -8.3791, "lon": -74.5539, "population": 326000 },
    { "name": "Tacna", "lat": -18.0146, "lon": -70.2536, "population": 306000 },
    { "name": "Ica", "lat": -14.0755, "lon": -75.7341, "population": 282000 },
    { "name": "Juliaca", "lat": -15.5000, "lon": -70.1333, "population": 276000 },
    { "name": "Ayacucho", "lat": -13.1588, "lon": -74.2236, "population": 197000 },
    { "name": "Cajamarca", "lat": -7.1638, "lon": -78.5003, "population": 201000 },
    { "name": "Puno", "lat": -15.8402, "lon": -70.0219, "population": 155000 },
    { "name": "Huanuco", "lat": -9.9306, "lon": -76.2422, "population": 150000 }
  ],
  "ARG": [
    { "name": "Buenos Aires", "lat": -34.6037, "lon": -58.3816, "population": 15154000, "isCapital": true },
    { "name": "Cordoba", "lat": -31.4201, "lon": -64.1888, "population": 1535000 },
    { "name": "Rosario", "lat": -32.9468, "lon": -60.6393, "population": 1236000 },
    { "name": "Mendoza", "lat": -32.8895, "lon": -68.8458, "population": 937000 },
    { "name": "Tucuman", "lat": -26.8083, "lon": -65.2176, "population": 868000 },
    { "name": "La Plata", "lat": -34.9205, "lon": -57.9536, "population": 799000 },
    { "name": "Mar del Plata", "lat": -38.0055, "lon": -57.5426, "population": 614000 },
    { "name": "Salta", "lat": -24.7829, "lon": -65.4122, "population": 601000 },
    { "name": "Santa Fe", "lat": -31.6333, "lon": -60.7000, "population": 526000 },
    { "name": "San Juan", "lat": -31.5375, "lon": -68.5364, "population": 471000 },
    { "name": "Resistencia", "lat": -27.4510, "lon": -58.9868, "population": 409000 },
    { "name": "Corrientes", "lat": -27.4692, "lon": -58.8306, "population": 362000 },
    { "name": "Santiago del Estero", "lat": -27.7951, "lon": -64.2615, "population": 361000 },
    { "name": "Posadas", "lat": -27.3671, "lon": -55.8961, "population": 355000 },
    { "name": "San Salvador de Jujuy", "lat": -24.1858, "lon": -65.2995, "population": 310000 },
    { "name": "Neuquen", "lat": -38.9516, "lon": -68.0591, "population": 291000 },
    { "name": "Formosa", "lat": -26.1775, "lon": -58.1781, "population": 273000 },
    { "name": "San Luis", "lat": -33.2950, "lon": -66.3356, "population": 204000 },
    { "name": "La Rioja", "lat": -29.4131, "lon": -66.8560, "population": 180000 },
    { "name": "Catamarca", "lat": -28.4696, "lon": -65.7852, "population": 172000 },
    { "name": "Comodoro Rivadavia", "lat": -45.8656, "lon": -67.4822, "population": 186000 },
    { "name": "Bahia Blanca", "lat": -38.7183, "lon": -62.2663, "population": 301000 },
    { "name": "Rio Gallegos", "lat": -51.6230, "lon": -69.2168, "population": 108000 },
    { "name": "Ushuaia", "lat": -54.8019, "lon": -68.3030, "population": 82000 }
  ],
  "IRN": [
    { "name": "Tehran", "lat": 35.6892, "lon": 51.3890, "population": 8694000, "isCapital": true },
    { "name": "Mashhad", "lat": 36.2605, "lon": 59.6168, "population": 3001000 },
    { "name": "Isfahan", "lat": 32.6546, "lon": 51.6680, "population": 2000000 },
    { "name": "Karaj", "lat": 35.8400, "lon": 50.9391, "population": 1592000 },
    { "name": "Shiraz", "lat": 29.5918, "lon": 52.5837, "population": 1566000 },
    { "name": "Tabriz", "lat": 38.0962, "lon": 46.2738, "population": 1559000 },
    { "name": "Ahvaz", "lat": 31.3183, "lon": 48.6706, "population": 1185000 },
    { "name": "Qom", "lat": 34.6401, "lon": 50.8764, "population": 1074000 },
    { "name": "Kermanshah", "lat": 34.3142, "lon": 47.0650, "population": 947000 },
    { "name": "Urmia", "lat": 37.5527, "lon": 45.0761, "population": 736000 },
    { "name": "Rasht", "lat": 37.2808, "lon": 49.5832, "population": 680000 },
    { "name": "Zahedan", "lat": 29.4963, "lon": 60.8629, "population": 588000 },
    { "name": "Hamadan", "lat": 34.7990, "lon": 48.5146, "population": 554000 },
    { "name": "Kerman", "lat": 30.2862, "lon": 57.0788, "population": 537000 },
    { "name": "Arak", "lat": 34.0917, "lon": 49.6892, "population": 526000 },
    { "name": "Ardabil", "lat": 38.2498, "lon": 48.2933, "population": 481000 },
    { "name": "Yazd", "lat": 31.8974, "lon": 54.3569, "population": 479000 },
    { "name": "Bandar Abbas", "lat": 27.1865, "lon": 56.2808, "population": 468000 },
    { "name": "Sanandaj", "lat": 35.3219, "lon": 46.9862, "population": 412000 },
    { "name": "Gorgan", "lat": 36.8427, "lon": 54.4439, "population": 351000 },
    { "name": "Khorramabad", "lat": 33.4878, "lon": 48.3558, "population": 373000 },
    { "name": "Bushehr", "lat": 28.9234, "lon": 50.8203, "population": 241000 },
    { "name": "Birjand", "lat": 32.8649, "lon": 59.2211, "population": 198000 },
    { "name": "Bojnurd", "lat": 37.4747, "lon": 57.3290, "population": 186000 }
  ],
  "SAU": [
    { "name": "Riyadh", "lat": 24.7136, "lon": 46.6753, "population": 7677000, "isCapital": true },
    { "name": "Jeddah", "lat": 21.4858, "lon": 39.1925, "population": 4697000 },
    { "name": "Mecca", "lat": 21.3891, "lon": 39.8579, "population": 2042000 },
    { "name": "Medina", "lat": 24.5247, "lon": 39.5692, "population": 1488000 },
    { "name": "Dammam", "lat": 26.4207, "lon": 50.0888, "population": 1252000 },
    { "name": "Khobar", "lat": 26.2172, "lon": 50.1971, "population": 650000 },
    { "name": "Tabuk", "lat": 28.3838, "lon": 36.5550, "population": 614000 },
    { "name": "Buraydah", "lat": 26.3260, "lon": 43.9750, "population": 614000 },
    { "name": "Khamis Mushait", "lat": 18.3066, "lon": 42.7296, "population": 552000 },
    { "name": "Abha", "lat": 18.2164, "lon": 42.5053, "population": 468000 },
    { "name": "Hail", "lat": 27.5114, "lon": 41.6908, "population": 412000 },
    { "name": "Hofuf", "lat": 25.3648, "lon": 49.5678, "population": 398000 },
    { "name": "Jubail", "lat": 27.0046, "lon": 49.6225, "population": 375000 },
    { "name": "Yanbu", "lat": 24.0895, "lon": 38.0618, "population": 298000 },
    { "name": "Taif", "lat": 21.2703, "lon": 40.4159, "population": 689000 },
    { "name": "Najran", "lat": 17.4933, "lon": 44.1277, "population": 363000 },
    { "name": "Jizan", "lat": 16.8892, "lon": 42.5511, "population": 180000 },
    { "name": "Sakaka", "lat": 29.9697, "lon": 40.2064, "population": 242000 },
    { "name": "Arar", "lat": 30.9753, "lon": 41.0381, "population": 148000 }
  ],
  "EGY": [
    { "name": "Cairo", "lat": 30.0444, "lon": 31.2357, "population": 10100000, "isCapital": true },
    { "name": "Alexandria", "lat": 31.2001, "lon": 29.9187, "population": 5381000 },
    { "name": "Giza", "lat": 30.0131, "lon": 31.2089, "population": 4367000 },
    { "name": "Shubra El Kheima", "lat": 30.1279, "lon": 31.2422, "population": 1186000 },
    { "name": "Port Said", "lat": 31.2565, "lon": 32.2841, "population": 760000 },
    { "name": "Suez", "lat": 29.9668, "lon": 32.5498, "population": 728000 },
    { "name": "Luxor", "lat": 25.6872, "lon": 32.6396, "population": 507000 },
    { "name": "Mansoura", "lat": 31.0409, "lon": 31.3785, "population": 586000 },
    { "name": "Tanta", "lat": 30.7865, "lon": 31.0004, "population": 529000 },
    { "name": "Asyut", "lat": 27.1810, "lon": 31.1837, "population": 479000 },
    { "name": "Ismailia", "lat": 30.5965, "lon": 32.2715, "population": 401000 },
    { "name": "Fayoum", "lat": 29.3084, "lon": 30.8428, "population": 387000 },
    { "name": "Zagazig", "lat": 30.5877, "lon": 31.5020, "population": 380000 },
    { "name": "Aswan", "lat": 24.0889, "lon": 32.8998, "population": 340000 },
    { "name": "Damietta", "lat": 31.4175, "lon": 31.8144, "population": 332000 },
    { "name": "Minya", "lat": 28.1099, "lon": 30.7503, "population": 324000 },
    { "name": "Beni Suef", "lat": 29.0661, "lon": 31.0994, "population": 270000 },
    { "name": "Sohag", "lat": 26.5591, "lon": 31.6948, "population": 260000 },
    { "name": "Hurghada", "lat": 27.2579, "lon": 33.8116, "population": 195000 },
    { "name": "Marsa Matruh", "lat": 31.3543, "lon": 27.2373, "population": 120000 },
    { "name": "Qena", "lat": 26.1551, "lon": 32.7160, "population": 265000 },
    { "name": "Sharm El Sheikh", "lat": 27.9158, "lon": 34.3300, "population": 73000 }
  ],
  "HUN": [
    { "name": "Budapest", "lat": 47.4979, "lon": 19.0402, "population": 1752000, "isCapital": true },
    { "name": "Debrecen", "lat": 47.5316, "lon": 21.6273, "population": 203000 },
    { "name": "Szeged", "lat": 46.2530, "lon": 20.1414, "population": 161000 },
    { "name": "Miskolc", "lat": 48.1035, "lon": 20.7784, "population": 157000 },
    { "name": "Pecs", "lat": 46.0727, "lon": 18.2323, "population": 145000 },
    { "name": "Gyor", "lat": 47.6875, "lon": 17.6504, "population": 132000 },
    { "name": "Nyiregyhaza", "lat": 47.9553, "lon": 21.7167, "population": 117000 },
    { "name": "Kecskemet", "lat": 46.8964, "lon": 19.6897, "population": 112000 },
    { "name": "Szekesfehervar", "lat": 47.1860, "lon": 18.4221, "population": 97000 },
    { "name": "Szombathely", "lat": 47.2307, "lon": 16.6218, "population": 79000 },
    { "name": "Szolnok", "lat": 47.1621, "lon": 20.1825, "population": 73000 },
    { "name": "Eger", "lat": 47.9026, "lon": 20.3772, "population": 53000 },
    { "name": "Kaposvar", "lat": 46.3594, "lon": 17.7967, "population": 63000 },
    { "name": "Sopron", "lat": 47.6851, "lon": 16.5905, "population": 62000 },
    { "name": "Veszprem", "lat": 47.0930, "lon": 17.9093, "population": 60000 },
    { "name": "Zalaegerszeg", "lat": 46.8417, "lon": 16.8416, "population": 59000 }
  ],
  "ROU": [
    { "name": "Bucharest", "lat": 44.4268, "lon": 26.1025, "population": 1794000, "isCapital": true },
    { "name": "Cluj-Napoca", "lat": 46.7712, "lon": 23.6236, "population": 324000 },
    { "name": "Timisoara", "lat": 45.7489, "lon": 21.2087, "population": 319000 },
    { "name": "Iasi", "lat": 47.1585, "lon": 27.6014, "population": 290000 },
    { "name": "Constanta", "lat": 44.1598, "lon": 28.6348, "population": 283000 },
    { "name": "Craiova", "lat": 44.3302, "lon": 23.7949, "population": 269000 },
    { "name": "Brasov", "lat": 45.6427, "lon": 25.5887, "population": 253000 },
    { "name": "Galati", "lat": 45.4353, "lon": 28.0080, "population": 249000 },
    { "name": "Ploiesti", "lat": 44.9462, "lon": 26.0256, "population": 209000 },
    { "name": "Oradea", "lat": 47.0465, "lon": 21.9189, "population": 196000 },
    { "name": "Braila", "lat": 45.2653, "lon": 27.9575, "population": 180000 },
    { "name": "Arad", "lat": 46.1866, "lon": 21.3123, "population": 159000 },
    { "name": "Pitesti", "lat": 44.8565, "lon": 24.8692, "population": 155000 },
    { "name": "Sibiu", "lat": 45.7983, "lon": 24.1256, "population": 147000 },
    { "name": "Bacau", "lat": 46.5670, "lon": 26.9146, "population": 144000 },
    { "name": "Targu Mures", "lat": 46.5456, "lon": 24.5625, "population": 134000 },
    { "name": "Baia Mare", "lat": 47.6567, "lon": 23.5850, "population": 124000 },
    { "name": "Buzau", "lat": 45.1500, "lon": 26.8333, "population": 115000 },
    { "name": "Suceava", "lat": 47.6514, "lon": 26.2554, "population": 92000 },
    { "name": "Deva", "lat": 45.8784, "lon": 22.9014, "population": 58000 }
  ],
  "BGR": [
    { "name": "Sofia", "lat": 42.6977, "lon": 23.3219, "population": 1307000, "isCapital": true },
    { "name": "Plovdiv", "lat": 42.1354, "lon": 24.7453, "population": 346000 },
    { "name": "Varna", "lat": 43.2141, "lon": 27.9147, "population": 336000 },
    { "name": "Burgas", "lat": 42.5048, "lon": 27.4626, "population": 202000 },
    { "name": "Ruse", "lat": 43.8356, "lon": 25.9657, "population": 149000 },
    { "name": "Stara Zagora", "lat": 42.4258, "lon": 25.6256, "population": 138000 },
    { "name": "Pleven", "lat": 43.4170, "lon": 24.6067, "population": 105000 },
    { "name": "Sliven", "lat": 42.6817, "lon": 26.3292, "population": 91000 },
    { "name": "Dobrich", "lat": 43.5727, "lon": 27.8273, "population": 88000 },
    { "name": "Shumen", "lat": 43.2712, "lon": 26.9290, "population": 80000 },
    { "name": "Pernik", "lat": 42.6046, "lon": 23.0378, "population": 80000 },
    { "name": "Haskovo", "lat": 41.9344, "lon": 25.5554, "population": 76000 },
    { "name": "Blagoevgrad", "lat": 42.0116, "lon": 23.0979, "population": 71000 },
    { "name": "Veliko Tarnovo", "lat": 43.0757, "lon": 25.6172, "population": 68000 },
    { "name": "Pazardzhik", "lat": 42.1928, "lon": 24.3336, "population": 67000 },
    { "name": "Vratsa", "lat": 43.2100, "lon": 23.5625, "population": 56000 },
    { "name": "Lovech", "lat": 43.1379, "lon": 24.7172, "population": 36000 }
  ],
  "GRC": [
    { "name": "Athen", "lat": 37.9838, "lon": 23.7275, "population": 3154000, "isCapital": true },
    { "name": "Thessaloniki", "lat": 40.6401, "lon": 22.9444, "population": 1012000 },
    { "name": "Patras", "lat": 38.2466, "lon": 21.7346, "population": 214000 },
    { "name": "Heraklion", "lat": 35.3387, "lon": 25.1442, "population": 174000 },
    { "name": "Larissa", "lat": 39.6390, "lon": 22.4191, "population": 170000 },
    { "name": "Volos", "lat": 39.3666, "lon": 22.9507, "population": 144000 },
    { "name": "Ioannina", "lat": 39.6650, "lon": 20.8537, "population": 112000 },
    { "name": "Chania", "lat": 35.5138, "lon": 24.0180, "population": 108000 },
    { "name": "Chalcis", "lat": 38.4637, "lon": 23.6121, "population": 102000 },
    { "name": "Kavala", "lat": 40.9397, "lon": 24.4014, "population": 70000 },
    { "name": "Kalamata", "lat": 37.0389, "lon": 22.1143, "population": 70000 },
    { "name": "Alexandroupoli", "lat": 40.8469, "lon": 25.8743, "population": 72000 },
    { "name": "Katerini", "lat": 40.2726, "lon": 22.5026, "population": 60000 },
    { "name": "Trikala", "lat": 39.5553, "lon": 21.7688, "population": 61000 },
    { "name": "Lamia", "lat": 38.8991, "lon": 22.4340, "population": 52000 },
    { "name": "Komotini", "lat": 41.1222, "lon": 25.4065, "population": 53000 },
    { "name": "Rhodos", "lat": 36.4341, "lon": 28.2176, "population": 50000 },
    { "name": "Korfu", "lat": 39.6243, "lon": 19.9217, "population": 39000 }
  ],
  "PRT": [
    { "name": "Lissabon", "lat": 38.7223, "lon": -9.1393, "population": 2870000, "isCapital": true },
    { "name": "Porto", "lat": 41.1579, "lon": -8.6291, "population": 1312000 },
    { "name": "Braga", "lat": 41.5518, "lon": -8.4229, "population": 193000 },
    { "name": "Coimbra", "lat": 40.2033, "lon": -8.4103, "population": 143000 },
    { "name": "Funchal", "lat": 32.6669, "lon": -16.9241, "population": 112000 },
    { "name": "Setúbal", "lat": 38.5244, "lon": -8.8882, "population": 121000 },
    { "name": "Aveiro", "lat": 40.6405, "lon": -8.6538, "population": 78000 },
    { "name": "Faro", "lat": 37.0194, "lon": -7.9322, "population": 65000 },
    { "name": "Leiria", "lat": 39.7437, "lon": -8.8071, "population": 63000 },
    { "name": "Évora", "lat": 38.5710, "lon": -7.9093, "population": 57000 },
    { "name": "Viseu", "lat": 40.6610, "lon": -7.9097, "population": 68000 },
    { "name": "Guimarães", "lat": 41.4431, "lon": -8.2920, "population": 54000 },
    { "name": "Vila Nova de Gaia", "lat": 41.1239, "lon": -8.6118, "population": 303000 },
    { "name": "Amadora", "lat": 38.7538, "lon": -9.2305, "population": 175000 }
  ],
  "NLD": [
    { "name": "Amsterdam", "lat": 52.3676, "lon": 4.9041, "population": 873000, "isCapital": true },
    { "name": "Rotterdam", "lat": 51.9244, "lon": 4.4777, "population": 651000 },
    { "name": "Den Haag", "lat": 52.0705, "lon": 4.3007, "population": 548000 },
    { "name": "Utrecht", "lat": 52.0907, "lon": 5.1214, "population": 361000 },
    { "name": "Eindhoven", "lat": 51.4416, "lon": 5.4697, "population": 234000 },
    { "name": "Groningen", "lat": 53.2194, "lon": 6.5665, "population": 233000 },
    { "name": "Tilburg", "lat": 51.5555, "lon": 5.0913, "population": 219000 },
    { "name": "Almere", "lat": 52.3508, "lon": 5.2647, "population": 215000 },
    { "name": "Breda", "lat": 51.5719, "lon": 4.7683, "population": 184000 },
    { "name": "Nijmegen", "lat": 51.8426, "lon": 5.8527, "population": 177000 },
    { "name": "Arnhem", "lat": 51.9851, "lon": 5.8987, "population": 161000 },
    { "name": "Haarlem", "lat": 52.3874, "lon": 4.6462, "population": 162000 },
    { "name": "Enschede", "lat": 52.2215, "lon": 6.8937, "population": 160000 },
    { "name": "Maastricht", "lat": 50.8514, "lon": 5.6910, "population": 122000 },
    { "name": "Leeuwarden", "lat": 53.2012, "lon": 5.7999, "population": 124000 },
    { "name": "Zwolle", "lat": 52.5168, "lon": 6.0830, "population": 130000 }
  ],
  "BEL": [
    { "name": "Brüssel", "lat": 50.8503, "lon": 4.3517, "population": 1209000, "isCapital": true },
    { "name": "Antwerpen", "lat": 51.2194, "lon": 4.4025, "population": 529000 },
    { "name": "Gent", "lat": 51.0543, "lon": 3.7174, "population": 263000 },
    { "name": "Charleroi", "lat": 50.4108, "lon": 4.4446, "population": 202000 },
    { "name": "Lüttich", "lat": 50.6326, "lon": 5.5797, "population": 197000 },
    { "name": "Brügge", "lat": 51.2093, "lon": 3.2247, "population": 118000 },
    { "name": "Namur", "lat": 50.4674, "lon": 4.8720, "population": 112000 },
    { "name": "Löwen", "lat": 50.8798, "lon": 4.7005, "population": 102000 },
    { "name": "Mons", "lat": 50.4542, "lon": 3.9566, "population": 95000 },
    { "name": "Mechelen", "lat": 51.0259, "lon": 4.4776, "population": 86000 },
    { "name": "Hasselt", "lat": 50.9307, "lon": 5.3322, "population": 78000 },
    { "name": "Kortrijk", "lat": 50.8270, "lon": 3.2627, "population": 77000 }
  ],
  "LUX": [
    { "name": "Luxemburg", "lat": 49.6117, "lon": 6.1319, "population": 128000, "isCapital": true },
    { "name": "Esch-sur-Alzette", "lat": 49.4958, "lon": 5.9806, "population": 36000 },
    { "name": "Differdange", "lat": 49.5242, "lon": 5.8914, "population": 28000 },
    { "name": "Dudelange", "lat": 49.4809, "lon": 6.0876, "population": 22000 },
    { "name": "Ettelbruck", "lat": 49.8475, "lon": 6.1042, "population": 10000 },
    { "name": "Diekirch", "lat": 49.8683, "lon": 6.1597, "population": 7000 }
  ],
  "IRL": [
    { "name": "Dublin", "lat": 53.3498, "lon": -6.2603, "population": 1228000, "isCapital": true },
    { "name": "Cork", "lat": 51.8985, "lon": -8.4756, "population": 210000 },
    { "name": "Galway", "lat": 53.2707, "lon": -9.0568, "population": 83000 },
    { "name": "Limerick", "lat": 52.6638, "lon": -8.6267, "population": 94000 },
    { "name": "Waterford", "lat": 52.2593, "lon": -7.1101, "population": 54000 },
    { "name": "Drogheda", "lat": 53.7189, "lon": -6.3478, "population": 41000 },
    { "name": "Dundalk", "lat": 54.0037, "lon": -6.4016, "population": 39000 },
    { "name": "Kilkenny", "lat": 52.6541, "lon": -7.2448, "population": 26000 },
    { "name": "Sligo", "lat": 54.2766, "lon": -8.4761, "population": 20000 },
    { "name": "Athlone", "lat": 53.4239, "lon": -7.9407, "population": 21000 },
    { "name": "Wexford", "lat": 52.3369, "lon": -6.4633, "population": 20000 }
  ],
  "DNK": [
    { "name": "Kopenhagen", "lat": 55.6761, "lon": 12.5683, "population": 1346000, "isCapital": true },
    { "name": "Aarhus", "lat": 56.1629, "lon": 10.2039, "population": 349000 },
    { "name": "Odense", "lat": 55.4038, "lon": 10.4024, "population": 204000 },
    { "name": "Aalborg", "lat": 57.0488, "lon": 9.9217, "population": 217000 },
    { "name": "Esbjerg", "lat": 55.4760, "lon": 8.4519, "population": 72000 },
    { "name": "Randers", "lat": 56.4607, "lon": 10.0365, "population": 62000 },
    { "name": "Kolding", "lat": 55.4904, "lon": 9.4722, "population": 61000 },
    { "name": "Horsens", "lat": 55.8607, "lon": 9.8503, "population": 59000 },
    { "name": "Vejle", "lat": 55.7093, "lon": 9.5357, "population": 57000 },
    { "name": "Roskilde", "lat": 55.6415, "lon": 12.0803, "population": 51000 },
    { "name": "Herning", "lat": 56.1394, "lon": 8.9736, "population": 50000 },
    { "name": "Helsingør", "lat": 56.0361, "lon": 12.6136, "population": 47000 }
  ],
  "ISL": [
    { "name": "Reykjavik", "lat": 64.1466, "lon": -21.9426, "population": 134000, "isCapital": true },
    { "name": "Kopavogur", "lat": 64.1105, "lon": -21.9130, "population": 38000 },
    { "name": "Hafnarfjörður", "lat": 64.0671, "lon": -21.9675, "population": 29000 },
    { "name": "Akureyri", "lat": 65.6835, "lon": -18.0878, "population": 19000 },
    { "name": "Keflavik", "lat": 64.0048, "lon": -22.5628, "population": 15000 },
    { "name": "Selfoss", "lat": 63.9330, "lon": -20.9976, "population": 7000 }
  ],
  "SRB": [
    { "name": "Belgrad", "lat": 44.7866, "lon": 20.4489, "population": 1689000, "isCapital": true },
    { "name": "Novi Sad", "lat": 45.2671, "lon": 19.8335, "population": 289000 },
    { "name": "Niš", "lat": 43.3209, "lon": 21.8958, "population": 260000 },
    { "name": "Kragujevac", "lat": 44.0128, "lon": 20.9114, "population": 179000 },
    { "name": "Subotica", "lat": 46.1003, "lon": 19.6658, "population": 97000 },
    { "name": "Zrenjanin", "lat": 45.3816, "lon": 20.3897, "population": 76000 },
    { "name": "Pančevo", "lat": 44.8708, "lon": 20.6403, "population": 76000 },
    { "name": "Čačak", "lat": 43.8914, "lon": 20.3497, "population": 73000 },
    { "name": "Novi Pazar", "lat": 43.1367, "lon": 20.5122, "population": 67000 },
    { "name": "Kraljevo", "lat": 43.7257, "lon": 20.6897, "population": 68000 },
    { "name": "Leskovac", "lat": 42.9981, "lon": 21.9460, "population": 60000 },
    { "name": "Užice", "lat": 43.8567, "lon": 19.8455, "population": 53000 }
  ],
  "HRV": [
    { "name": "Zagreb", "lat": 45.8150, "lon": 15.9819, "population": 807000, "isCapital": true },
    { "name": "Split", "lat": 43.5081, "lon": 16.4402, "population": 178000 },
    { "name": "Rijeka", "lat": 45.3271, "lon": 14.4422, "population": 128000 },
    { "name": "Osijek", "lat": 45.5550, "lon": 18.6955, "population": 108000 },
    { "name": "Zadar", "lat": 44.1194, "lon": 15.2314, "population": 75000 },
    { "name": "Slavonski Brod", "lat": 45.1603, "lon": 18.0156, "population": 59000 },
    { "name": "Pula", "lat": 44.8666, "lon": 13.8496, "population": 57000 },
    { "name": "Karlovac", "lat": 45.4929, "lon": 15.5553, "population": 55000 },
    { "name": "Varaždin", "lat": 46.3057, "lon": 16.3366, "population": 47000 },
    { "name": "Šibenik", "lat": 43.7350, "lon": 15.8952, "population": 46000 },
    { "name": "Dubrovnik", "lat": 42.6507, "lon": 18.0944, "population": 42000 }
  ],
  "SVK": [
    { "name": "Bratislava", "lat": 48.1486, "lon": 17.1077, "population": 475000, "isCapital": true },
    { "name": "Košice", "lat": 48.7164, "lon": 21.2611, "population": 240000 },
    { "name": "Prešov", "lat": 48.9986, "lon": 21.2391, "population": 89000 },
    { "name": "Žilina", "lat": 49.2231, "lon": 18.7394, "population": 81000 },
    { "name": "Nitra", "lat": 48.3069, "lon": 18.0864, "population": 77000 },
    { "name": "Banská Bystrica", "lat": 48.7395, "lon": 19.1533, "population": 77000 },
    { "name": "Trnava", "lat": 48.3774, "lon": 17.5861, "population": 66000 },
    { "name": "Trenčín", "lat": 48.8945, "lon": 18.0444, "population": 56000 },
    { "name": "Martin", "lat": 49.0636, "lon": 18.9214, "population": 55000 },
    { "name": "Poprad", "lat": 49.0586, "lon": 20.2974, "population": 51000 }
  ],
  "SVN": [
    { "name": "Ljubljana", "lat": 46.0569, "lon": 14.5058, "population": 295000, "isCapital": true },
    { "name": "Maribor", "lat": 46.5547, "lon": 15.6459, "population": 112000 },
    { "name": "Celje", "lat": 46.2360, "lon": 15.2677, "population": 49000 },
    { "name": "Kranj", "lat": 46.2389, "lon": 14.3556, "population": 38000 },
    { "name": "Koper", "lat": 45.5469, "lon": 13.7290, "population": 26000 },
    { "name": "Velenje", "lat": 46.3599, "lon": 15.1102, "population": 25000 },
    { "name": "Novo Mesto", "lat": 45.8042, "lon": 15.1689, "population": 24000 },
    { "name": "Nova Gorica", "lat": 45.9587, "lon": 13.6439, "population": 13000 }
  ],
  "BIH": [
    { "name": "Sarajevo", "lat": 43.8563, "lon": 18.4131, "population": 419000, "isCapital": true },
    { "name": "Banja Luka", "lat": 44.7722, "lon": 17.1910, "population": 185000 },
    { "name": "Tuzla", "lat": 44.5384, "lon": 18.6735, "population": 111000 },
    { "name": "Zenica", "lat": 44.2037, "lon": 17.9078, "population": 110000 },
    { "name": "Mostar", "lat": 43.3438, "lon": 17.8078, "population": 105000 },
    { "name": "Bijeljina", "lat": 44.7586, "lon": 19.2148, "population": 75000 },
    { "name": "Prijedor", "lat": 44.9809, "lon": 16.7131, "population": 65000 },
    { "name": "Brčko", "lat": 44.8725, "lon": 18.8104, "population": 44000 },
    { "name": "Trebinje", "lat": 42.7113, "lon": 18.3437, "population": 31000 }
  ],
  "MNE": [
    { "name": "Podgorica", "lat": 42.4304, "lon": 19.2594, "population": 190000, "isCapital": true },
    { "name": "Nikšić", "lat": 42.7731, "lon": 18.9444, "population": 57000 },
    { "name": "Bijelo Polje", "lat": 43.0375, "lon": 19.7489, "population": 15000 },
    { "name": "Bar", "lat": 42.0931, "lon": 19.1003, "population": 14000 },
    { "name": "Herceg Novi", "lat": 42.4531, "lon": 18.5375, "population": 12000 },
    { "name": "Budva", "lat": 42.2914, "lon": 18.8403, "population": 11000 },
    { "name": "Cetinje", "lat": 42.3931, "lon": 18.9231, "population": 14000 },
    { "name": "Kotor", "lat": 42.4247, "lon": 18.7712, "population": 13000 }
  ],
  "LTU": [
    { "name": "Vilnius", "lat": 54.6872, "lon": 25.2797, "population": 588000, "isCapital": true },
    { "name": "Kaunas", "lat": 54.8985, "lon": 23.9036, "population": 315000 },
    { "name": "Klaipėda", "lat": 55.7033, "lon": 21.1443, "population": 156000 },
    { "name": "Šiauliai", "lat": 55.9349, "lon": 23.3137, "population": 103000 },